De ref,school name,town,postcode,management type,constituency,Urban/ Rural     ,total enrolment,Latitude,Longitude,nearest_distance,nearest_school,nearest_management_type,nearest_same_management_distance,nearest_same_management_school,nearest_distance_other_management,nearest_school_other_management,nearest_management_type_other_management,Sustainability,geom
1010012,"Belmont Primary School, Belfast",Belfast,BT4 2AG,Controlled,Belfast East,URBAN,245.0,54.598815,-5.867075,0.5071583479129954,"Strathearn Preparatory School, Belfast",Voluntary,0.5245959069041609,"Greenwood Primary School, Belfast",0.5071583479129954,"Strathearn Preparatory School, Belfast",Voluntary,Sustainable,POINT (-5.867075 54.598815)
1010063,"Currie Primary School, Belfast",Belfast,BT15 3AB,Controlled,Belfast North,URBAN,192.0,54.615987,-5.930782,0.2769120207637697,"Holy Family Primary School, Belfast",Catholic Maintained,1.0768046051869464,"Bunscoil Mhic Reachtain, Belfast",0.2769120207637697,"Holy Family Primary School, Belfast",Catholic Maintained,Sustainable,POINT (-5.930782 54.615987)
1010146,"Euston Street Primary School, Belfast",Belfast,BT6 9AG,Controlled,Belfast East,URBAN,363.0,54.588914,-5.898412,0.4211784171341346,"Elmgrove Primary School, Belfast",Controlled,0.4211784171341346,"Elmgrove Primary School, Belfast",0.7012307078875266,"Harding Memorial Integrated Primary School, Belfast",Controlled Integrated,Sustainable,POINT (-5.898412 54.588914)
1010157,Rosetta Primary School,Belfast,BT6 0JA,Controlled,Belfast South,URBAN,310.0,54.570179,-5.91184,0.2386873036908356,"Forge Integrated Primary School, Belfast",Controlled Integrated,0.6062949226274205,"Knockbreda Primary School, Belfast",0.2386873036908356,"Forge Integrated Primary School, Belfast",Controlled Integrated,Sustainable,POINT (-5.91184 54.570179)
1010205,"Forth River Primary School, Belfast",Belfast,BT13 3PQ,Controlled,Belfast West,URBAN,212.0,54.61246,-5.969755,0.48659232783588474,"Mercy Primary School, Belfast",Catholic Maintained,0.9022000782370078,"Wheatfield Primary School, Belfast",0.48659232783588474,"Mercy Primary School, Belfast",Catholic Maintained,Sustainable,POINT (-5.969755 54.61246)
1010221,"Springfield Primary School, Belfast",Belfast,BT12 7DJ,Controlled,Belfast West,URBAN,177.0,54.601149,-5.969327,0.580914261124223,"Black Mountain Primary School, Belfast",Controlled,0.580914261124223,"Black Mountain Primary School, Belfast",0.6132668285760765,"St Paul's Primary School, Belfast",Catholic Maintained,Sustainable,POINT (-5.969327 54.601149)
1010252,"Strandtown Primary School, Belfast",Belfast,BT4 3DJ,Controlled,Belfast East,URBAN,979.0,54.597401,-5.875551,0.2681822880289395,"Dundela Infants Primary School, Belfast",Controlled,0.2681822880289395,"Dundela Infants Primary School, Belfast",0.4284185781188719,"St Joseph's Primary School, Holland Dr",Catholic Maintained,Sustainable,POINT (-5.875551 54.597401)
1010255,"Elmgrove Primary School, Belfast",Belfast,BT5 4RS,Controlled,Belfast East,URBAN,612.0,54.591444,-5.893547,0.4211784171341346,"Euston Street Primary School, Belfast",Controlled,0.4211784171341346,"Euston Street Primary School, Belfast",1.0334504098027635,"Harding Memorial Integrated Primary School, Belfast",Controlled Integrated,Sustainable,POINT (-5.893547 54.591444)
1010266,"Seaview Primary School, Belfast",Belfast,BT15 3NB,Controlled,Belfast North,URBAN,448.0,54.626744,-5.927231,0.8555630993273183,"St Therese of Lisieux Primary School, Belfast",Catholic Maintained,0.8767960951036787,"Lowwood Primary School, Belfast",0.8555630993273183,"St Therese of Lisieux Primary School, Belfast",Catholic Maintained,Sustainable,POINT (-5.927231 54.626744)
1010267,"Nettlefield Primary School, Belfast",Belfast,BT6 8BG,Controlled,Belfast South,URBAN,413.0,54.592931,-5.906235,0.6734595141337962,"Euston Street Primary School, Belfast",Controlled,0.6734595141337962,"Euston Street Primary School, Belfast",0.6771908543249145,"St Matthew's Primary School, Belfast",Catholic Maintained,Sustainable,POINT (-5.906235 54.592931)
1010273,"Orangefield Primary School, Belfast",Belfast,BT5 6BA,Controlled,Belfast East,URBAN,460.0,54.58303,-5.879935,1.0319019501411333,"Leadhill Primary School, Belfast",Controlled,1.0319019501411333,"Leadhill Primary School, Belfast",1.1985436182087208,"Harding Memorial Integrated Primary School, Belfast",Controlled Integrated,Sustainable,POINT (-5.879935 54.58303)
1010282,"Carr's Glen Primary School, Belfast",Belfast,BT14 6QX,Controlled,Belfast North,URBAN,340.0,54.62434,-5.961854,0.5104380732043596,"Our Lady's Primary School, Belfast",Catholic Maintained,0.534730685372183,"Wheatfield Primary School, Belfast",0.5104380732043596,"Our Lady's Primary School, Belfast",Catholic Maintained,Sustainable,POINT (-5.961854 54.62434)
1010301,"Taughmonagh Primary School, Belfast",Belfast,BT9 6QL,Controlled,Belfast South,URBAN,264.0,54.559872,-5.967716,1.0442900218980242,"Finaghy Primary School, Belfast",Controlled,1.0442900218980242,"Finaghy Primary School, Belfast",1.3118035064924207,"Cranmore Integrated Primary School, Belfast",GMI,Sustainable,POINT (-5.967716 54.559872)
1010304,"Greenwood Primary School, Belfast",Belfast,BT4 3HS,Controlled,Belfast East,URBAN,294.0,54.59561,-5.861099,0.5245959069041609,"Belmont Primary School, Belfast",Controlled,0.5245959069041609,"Belmont Primary School, Belfast",0.6355159693788216,"St Joseph's Primary School, Holland Dr",Catholic Maintained,Sustainable,POINT (-5.861099 54.59561)
1010307,"Springhill Primary School, Belfast",Belfast,BT13 3NH,Controlled,Belfast West,URBAN,195.0,54.605993,-5.978496,0.6241200316486376,"Black Mountain Primary School, Belfast",Controlled,0.6241200316486376,"Black Mountain Primary School, Belfast",1.3215109087510508,"Mercy Primary School, Belfast",Catholic Maintained,Sustainable,POINT (-5.978496 54.605993)
1010323,"Edenbrooke Primary School, Belfast",Belfast,BT13 3GG,Controlled,Belfast North,URBAN,367.0,54.609933,-5.953627,0.4846173898382459,"Glenwood Primary School, Belfast",Controlled,0.4846173898382459,"Glenwood Primary School, Belfast",0.5547950234346488,"Holy Cross Boys' Primary School, Belfast",Catholic Maintained,Sustainable,POINT (-5.953627 54.609933)
1010324,"Stranmillis Primary School, Belfast",Belfast,BT9 5EH,Controlled,Belfast South,URBAN,466.0,54.567386,-5.937621,0.9882754356764223,"Victoria College Prep Department, Belfast",Voluntary,1.6906795666680052,Rosetta Primary School,0.9882754356764223,"Victoria College Prep Department, Belfast",Voluntary,Sustainable,POINT (-5.937621 54.567386)
1010325,"Ligoniel Primary School, Belfast",Belfast,BT14 8BW,Controlled,Belfast North,URBAN,197.0,54.62425,-5.978984,0.3755625460018084,St Vincent de Paul Primary School,Catholic Maintained,0.9620621133716964,Ballysillan Primary School,0.3755625460018084,St Vincent de Paul Primary School,Catholic Maintained,Sustainable,POINT (-5.978984 54.62425)
1010806,"Finaghy Primary School, Belfast",Belfast,BT10 0DR,Controlled,Belfast South,URBAN,383.0,54.560269,-5.983898,0.7759347643925627,"Cranmore Integrated Primary School, Belfast",GMI,1.0442900218980242,"Taughmonagh Primary School, Belfast",0.7759347643925627,"Cranmore Integrated Primary School, Belfast",GMI,Sustainable,POINT (-5.983898 54.560269)
1010831,"Cavehill Primary School, Belfast",Belfast,BT15 5FG,Controlled,Belfast North,URBAN,402.0,54.635449,-5.947218,0.7759008183112291,"St Therese of Lisieux Primary School, Belfast",Catholic Maintained,1.466202248676576,"Lowwood Primary School, Belfast",0.7759008183112291,"St Therese of Lisieux Primary School, Belfast",Catholic Maintained,Sustainable,POINT (-5.947218 54.635449)
1013018,"Knocknagoney Primary School, Belfast",Belfast,BT4 2NR,Controlled,Belfast East,URBAN,249.0,54.618774,-5.85352,1.9399619104095582,"Campbell College Junior School, Belfast",Voluntary,2.3848464934965876,"Belmont Primary School, Belfast",1.9399619104095582,"Campbell College Junior School, Belfast",Voluntary,Sustainable,POINT (-5.85352 54.618774)
1016059,"Black Mountain Primary School, Belfast",Belfast,BT13 3TT,Controlled,Belfast West,URBAN,182.0,54.600382,-5.978248,0.580914261124223,"Springfield Primary School, Belfast",Controlled,0.580914261124223,"Springfield Primary School, Belfast",0.8434216605803203,"St Paul's Primary School, Belfast",Catholic Maintained,Sustainable,POINT (-5.978248 54.600382)
1016060,"Donegall Road Primary School, Belfast",Belfast,BT12 6HE,Controlled,Belfast South,URBAN,209.0,54.589134,-5.95317,0.45128510123298676,"Fane Street Primary School, Belfast",Controlled,0.45128510123298676,"Fane Street Primary School, Belfast",0.577523280908805,"Gaelscoil Na Bhfal, Belfast",Other Maintained,Sustainable,POINT (-5.95317 54.589134)
1016076,Ballysillan Primary School,Belfast,BT14 8LT,Controlled,Belfast North,URBAN,223.0,54.630789,-5.969197,0.8588604992749961,"Carr's Glen Primary School, Belfast",Controlled,0.8588604992749961,"Carr's Glen Primary School, Belfast",1.0668206573268426,St Vincent de Paul Primary School,Catholic Maintained,Sustainable,POINT (-5.969197 54.630789)
1016205,"Fane Street Primary School, Belfast",Belfast,BT9 7BW,Controlled,Belfast South,URBAN,309.0,54.585229,-5.951262,0.45128510123298676,"Donegall Road Primary School, Belfast",Controlled,0.45128510123298676,"Donegall Road Primary School, Belfast",0.8894835283404737,"Fullerton House Preparatory School, Belfast",Voluntary,Sustainable,POINT (-5.951262 54.585229)
1016207,"Blythefield Primary School, Belfast",Belfast,BT12 5HX,Controlled,Belfast South,URBAN,192.0,54.590606,-5.940935,0.6920886042812214,"St Joseph's Primary School, Slate",Catholic Maintained,0.8051054332443132,"Donegall Road Primary School, Belfast",0.6920886042812214,"St Joseph's Primary School, Slate",Catholic Maintained,Sustainable,POINT (-5.940935 54.590606)
1016242,"Dundela Infants Primary School, Belfast",Belfast,BT4 3BL,Controlled,Belfast East,URBAN,282.0,54.599769,-5.876341,0.2681822880289395,"Strandtown Primary School, Belfast",Controlled,0.2681822880289395,"Strandtown Primary School, Belfast",0.6674038496429695,"St Joseph's Primary School, Holland Dr",Catholic Maintained,Sustainable,POINT (-5.876341 54.599769)
1016485,"Glenwood Primary School, Belfast",Belfast,BT13 3GW,Controlled,Belfast North,URBAN,508.0,54.605844,-5.956231,0.4846173898382459,"Edenbrooke Primary School, Belfast",Controlled,0.4846173898382459,"Edenbrooke Primary School, Belfast",0.5607847499877106,"St Clare's Primary School, Belfast",Catholic Maintained,Sustainable,POINT (-5.956231 54.605844)
1016498,"Malvern Primary School, Belfast",Belfast,BT13 1HW,Controlled,Belfast West,URBAN,164.0,54.606006,-5.944089,0.6256545399514299,"St Patrick's Primary School, Belfast",Catholic Maintained,0.7536454057623057,"Edenbrooke Primary School, Belfast",0.6256545399514299,"St Patrick's Primary School, Belfast",Catholic Maintained,Sustainable,POINT (-5.944089 54.606006)
1016499,"Botanic Primary School, Belfast",Belfast,BT7 1QY,Controlled,Belfast South,URBAN,210.0,54.582133,-5.929312,0.5777726331489994,"Fullerton House Preparatory School, Belfast",Voluntary,1.2035559965868332,"Blythefield Primary School, Belfast",0.5777726331489994,"Fullerton House Preparatory School, Belfast",Voluntary,Sustainable,POINT (-5.929312 54.582133)
1016532,"Wheatfield Primary School, Belfast",Belfast,BT14 7JE,Controlled,Belfast North,URBAN,176.0,54.61958,-5.963036,0.32687619265270224,"Holy Cross Girls' Primary School, Belfast",Catholic Maintained,0.534730685372183,"Carr's Glen Primary School, Belfast",0.32687619265270224,"Holy Cross Girls' Primary School, Belfast",Catholic Maintained,Sustainable,POINT (-5.963036 54.61958)
1016537,"Lowwood Primary School, Belfast",Belfast,BT15 4BL,Controlled,Belfast North,URBAN,243.0,54.634469,-5.924499,0.7856382134314432,"St Mary's Star of the Sea Primary School, Belfast",Catholic Maintained,0.8767960951036787,"Seaview Primary School, Belfast",0.7856382134314432,"St Mary's Star of the Sea Primary School, Belfast",Catholic Maintained,Sustainable,POINT (-5.924499 54.634469)
1016604,"Harmony Primary School, Belfast",Belfast,BT13 3SY,Controlled,Belfast West,URBAN,270.0,54.615622286274096,-5.9826709693148885,0.8218488515570785,"Mercy Primary School, Belfast",Catholic Maintained,0.9029522658127789,"Forth River Primary School, Belfast",0.8218488515570785,"Mercy Primary School, Belfast",Catholic Maintained,Sustainable,POINT (-5.9826709693148885 54.615622286274096)
1016647,"Bunscoil Mhic Reachtain, Belfast",Belfast,BT15 1EZ,Controlled,Belfast North,URBAN,50.0,54.606314,-5.929988,0.4484619709164242,"St Patrick's Primary School, Belfast",Catholic Maintained,0.9087988966774027,"Malvern Primary School, Belfast",0.4484619709164242,"St Patrick's Primary School, Belfast",Catholic Maintained,Not Sustainable,POINT (-5.929988 54.606314)
1016655,Victoria Park Primary School,Belfast,BT4 1LX,Controlled,Belfast East,URBAN,373.0,54.604443,-5.882118,0.6391950203845528,"Dundela Infants Primary School, Belfast",Controlled,0.6391950203845528,"Dundela Infants Primary School, Belfast",1.3059942985223787,"St Joseph's Primary School, Holland Dr",Catholic Maintained,Sustainable,POINT (-5.882118 54.604443)
1030194,"Holy Cross Boys' Primary School, Belfast",Belfast,BT14 7EX,Catholic Maintained,Belfast North,URBAN,397.0,54.613824,-5.95902,0.5547950234346488,"Edenbrooke Primary School, Belfast",Controlled,0.6392830717561655,"Sacred Heart Primary School, Belfast",0.5547950234346488,"Edenbrooke Primary School, Belfast",Controlled,Sustainable,POINT (-5.95902 54.613824)
1030313,"Our Lady of Lourdes Primary School, Belfast",Belfast,BT15 5GQ,Catholic Maintained,Belfast North,URBAN,623.0,54.645265,-5.936343,0.31161113353227937,Ben Madigan Preparatory School,Voluntary,0.8436683789145405,"St Mary's Star of the Sea Primary School, Belfast",0.31161113353227937,Ben Madigan Preparatory School,Voluntary,Sustainable,POINT (-5.936343 54.645265)
1030326,"Our Lady's Primary School, Belfast",Belfast,BT14 6NN,Catholic Maintained,Belfast North,URBAN,193.0,54.622333,-5.954723,0.5104380732043596,"Carr's Glen Primary School, Belfast",Controlled,0.7488154622789942,"Sacred Heart Primary School, Belfast",0.5104380732043596,"Carr's Glen Primary School, Belfast",Controlled,Sustainable,POINT (-5.954723 54.622333)
1030327,"Holy Rosary Primary School, Belfast",Belfast,BT7 3DB,Catholic Maintained,Belfast South,URBAN,470.0,54.575726,-5.924069,0.7624938217476226,"Forge Integrated Primary School, Belfast",Controlled Integrated,0.8595758125375023,"St Michael's Primary School, Belfast",0.7624938217476226,"Forge Integrated Primary School, Belfast",Controlled Integrated,Sustainable,POINT (-5.924069 54.575726)
1030331,"Holy Cross Girls' Primary School, Belfast",Belfast,BT14 7HZ,Catholic Maintained,Belfast North,URBAN,192.0,54.619665,-5.968111,0.32687619265270224,"Wheatfield Primary School, Belfast",Controlled,0.33954364067773746,"Mercy Primary School, Belfast",0.32687619265270224,"Wheatfield Primary School, Belfast",Controlled,Sustainable,POINT (-5.968111 54.619665)
1030868,"St Anne's Primary School, Belfast",Belfast,BT10 0NE,Catholic Maintained,Belfast South,URBAN,887.0,54.553711,-5.99478,0.9302447592695015,Dunmurry Primary School,Controlled,1.1734119044647582,"Our Lady Queen of Peace Primary School, Belfast",0.9302447592695015,Dunmurry Primary School,Controlled,Sustainable,POINT (-5.99478 54.553711)
1036041,"Mercy Primary School, Belfast",Belfast,BT14 7GL,Catholic Maintained,Belfast North,URBAN,241.0,54.616832,-5.970079,0.33954364067773746,"Holy Cross Girls' Primary School, Belfast",Catholic Maintained,0.33954364067773746,"Holy Cross Girls' Primary School, Belfast",0.48659232783588474,"Forth River Primary School, Belfast",Controlled,Sustainable,POINT (-5.970079 54.616832)
1036042,St Vincent de Paul Primary School,Belfast,BT14 8DP,Catholic Maintained,Belfast North,URBAN,288.0,54.626198,-5.98375,0.3755625460018084,"Ligoniel Primary School, Belfast",Controlled,1.2415068520118002,"Holy Cross Girls' Primary School, Belfast",0.3755625460018084,"Ligoniel Primary School, Belfast",Controlled,Sustainable,POINT (-5.98375 54.626198)
1036048,"St Mary's Star of the Sea Primary School, Belfast",Belfast,BT15 4HL,Catholic Maintained,Belfast North,URBAN,138.0,54.64153,-5.92493,0.7467787627466487,Ben Madigan Preparatory School,Voluntary,0.8436683789145405,"Our Lady of Lourdes Primary School, Belfast",0.7467787627466487,Ben Madigan Preparatory School,Voluntary,Not Sustainable,POINT (-5.92493 54.64153)
1036075,"St Bride's Primary School, Belfast",Belfast,BT9 6FP,Catholic Maintained,Belfast South,URBAN,838.0,54.578167,-5.943836,0.6072696030823496,"Fullerton House Preparatory School, Belfast",Voluntary,1.302570410848933,"Holy Rosary Primary School, Belfast",0.6072696030823496,"Fullerton House Preparatory School, Belfast",Voluntary,Sustainable,POINT (-5.943836 54.578167)
1036132,"St Therese of Lisieux Primary School, Belfast",Belfast,BT15 5GF,Catholic Maintained,Belfast North,URBAN,424.0,54.630367,-5.938957,0.7759008183112291,"Cavehill Primary School, Belfast",Controlled,1.3520514123025051,"Our Lady's Primary School, Belfast",0.7759008183112291,"Cavehill Primary School, Belfast",Controlled,Sustainable,POINT (-5.938957 54.630367)
1036140,"St Michael's Primary School, Belfast",Belfast,BT6 0BW,Catholic Maintained,Belfast South,URBAN,417.0,54.579297,-5.91224,0.5363054468074383,Downey House Preparatory School,Voluntary,0.8595758125375023,"Holy Rosary Primary School, Belfast",0.5363054468074383,Downey House Preparatory School,Voluntary,Sustainable,POINT (-5.91224 54.579297)
1036246,"St Joseph's Primary School, Holland Dr",Belfast,BT5 6EH,Catholic Maintained,Belfast East,URBAN,377.0,54.594685,-5.870834,0.4284185781188719,"Strandtown Primary School, Belfast",Controlled,2.362746970225242,"St Matthew's Primary School, Belfast",0.4284185781188719,"Strandtown Primary School, Belfast",Controlled,Sustainable,POINT (-5.870834 54.594685)
1036388,"St Mary's Primary School, Belfast",Belfast,BT12 4AL,Catholic Maintained,Belfast West,URBAN,132.0,54.599591,-5.938794,0.5817443624596594,"St Peter's Primary School, Belfast",Catholic Maintained,0.5817443624596594,"St Peter's Primary School, Belfast",0.7906527177678814,"Malvern Primary School, Belfast",Controlled,Not Sustainable,POINT (-5.938794 54.599591)
1036466,"St Malachy's Primary School, Belfast",Belfast,BT7 2BJ,Catholic Maintained,Belfast South,URBAN,391.0,54.593294,-5.923624,0.552399573951861,"Scoil an Droichid, Belfast",Other Maintained,1.2021895197660735,"St Mary's Primary School, Belfast",0.552399573951861,"Scoil an Droichid, Belfast",Other Maintained,Sustainable,POINT (-5.923624 54.593294)
1036471,"Sacred Heart Primary School, Belfast",Belfast,BT14 6HH,Catholic Maintained,Belfast North,URBAN,156.0,54.616187,-5.949969,0.28003524798775076,"Cliftonville Integrated Primary School, Belfast",Controlled Integrated,0.6392830717561655,"Holy Cross Boys' Primary School, Belfast",0.28003524798775076,"Cliftonville Integrated Primary School, Belfast",Controlled Integrated,Sustainable,POINT (-5.949969 54.616187)
1036505,"St Matthew's Primary School, Belfast",Belfast,BT5 4EW,Catholic Maintained,Belfast East,URBAN,346.0,54.599014,-5.906743,0.6771908543249145,"Nettlefield Primary School, Belfast",Controlled,1.2598077869811677,"St Malachy's Primary School, Belfast",0.6771908543249145,"Nettlefield Primary School, Belfast",Controlled,Sustainable,POINT (-5.906743 54.599014)
1036565,St Kevin's Primary School,Belfast,BT12 6EN,Catholic Maintained,Belfast West,URBAN,566.0,54.588061,-5.97004,0.6045189916161459,"Gaelscoil Na Bhfal, Belfast",Other Maintained,0.8589463458154771,"St Paul's Primary School, Belfast",0.6045189916161459,"Gaelscoil Na Bhfal, Belfast",Other Maintained,Sustainable,POINT (-5.97004 54.588061)
1036566,"Holy Family Primary School, Belfast",Belfast,BT15 2HP,Catholic Maintained,Belfast North,URBAN,486.0,54.615547,-5.935015,0.2769120207637697,"Currie Primary School, Belfast",Controlled,0.76010507824059,"St Patrick's Primary School, Belfast",0.2769120207637697,"Currie Primary School, Belfast",Controlled,Sustainable,POINT (-5.935015 54.615547)
1036576,"Holy Child Primary School, Belfast",Belfast,BT11 8JF,Catholic Maintained,Belfast West,URBAN,457.0,54.576323,-5.991334,0.5327005530193404,"St John the Baptist Primary School, Belfast",Catholic Maintained,0.5327005530193404,"St John the Baptist Primary School, Belfast",0.9069143087381161,Bunscoil Phobal Feirste,Other Maintained,Sustainable,POINT (-5.991334 54.576323)
1036589,"St Teresa's Primary School, Belfast",Belfast,BT11 8BL,Catholic Maintained,Belfast West,URBAN,610.0,54.581356,-5.989771,0.5686377695344026,"Holy Child Primary School, Belfast",Catholic Maintained,0.5686377695344026,"Holy Child Primary School, Belfast",0.5775392719169155,"Gaelscoil na Mona, Belfast",Other Maintained,Sustainable,POINT (-5.989771 54.581356)
1036602,"St Oliver Plunkett Primary School, Belfast",Belfast,BT11 8AY,Catholic Maintained,Belfast West,URBAN,633.0,54.576265,-6.013392,0.589615233014008,Bunscoil Phobal Feirste,Other Maintained,1.3243300448766828,"St John the Baptist Primary School, Belfast",0.589615233014008,Bunscoil Phobal Feirste,Other Maintained,Sustainable,POINT (-6.013392 54.576265)
1036620,"St Peter's Primary School, Belfast",Belfast,BT12 4JD,Catholic Maintained,Belfast West,URBAN,283.0,54.597812,-5.947287,0.2202257410225173,"St Joseph's Primary School, Slate",Catholic Maintained,0.2202257410225173,"St Joseph's Primary School, Slate",0.3488008333848508,"Gaelscoil an Lonnain, Belfast",Other Maintained,Sustainable,POINT (-5.947287 54.597812)
1036621,"St Joseph's Primary School, Slate",Belfast,BT12 4LD,Catholic Maintained,Belfast West,URBAN,325.0,54.595862,-5.946689,0.2202257410225173,"St Peter's Primary School, Belfast",Catholic Maintained,0.2202257410225173,"St Peter's Primary School, Belfast",0.46151249509777714,"Gaelscoil an Lonnain, Belfast",Other Maintained,Sustainable,POINT (-5.946689 54.595862)
1036623,"Holy Trinity Primary School, Belfast",Belfast,BT11 8EG,Catholic Maintained,Belfast West,URBAN,645.0,54.587676,-5.992709,0.16924171489909284,"Gaelscoil na Mona, Belfast",Other Maintained,0.7278069447741414,"St Teresa's Primary School, Belfast",0.16924171489909284,"Gaelscoil na Mona, Belfast",Other Maintained,Sustainable,POINT (-5.992709 54.587676)
1036624,"St Paul's Primary School, Belfast",Belfast,BT12 7NN,Catholic Maintained,Belfast West,URBAN,336.0,54.595691,-5.967959,0.6132668285760765,"Springfield Primary School, Belfast",Controlled,0.8170086020033884,"St Clare's Primary School, Belfast",0.6132668285760765,"Springfield Primary School, Belfast",Controlled,Sustainable,POINT (-5.967959 54.595691)
1036630,"St Clare's Primary School, Belfast",Belfast,BT13 2SE,Catholic Maintained,Belfast West,URBAN,460.0,54.601173,-5.959514,0.5545999373431147,"Gaelscoil an Lonnain, Belfast",Other Maintained,0.8170086020033884,"St Paul's Primary School, Belfast",0.5545999373431147,"Gaelscoil an Lonnain, Belfast",Other Maintained,Sustainable,POINT (-5.959514 54.601173)
1036688,"St John the Baptist Primary School, Belfast",Belfast,BT11 9EH,Catholic Maintained,Belfast West,URBAN,401.0,54.571853,-5.994307,0.5327005530193404,"Holy Child Primary School, Belfast",Catholic Maintained,0.5327005530193404,"Holy Child Primary School, Belfast",0.734799631942845,Bunscoil Phobal Feirste,Other Maintained,Sustainable,POINT (-5.994307 54.571853)
1036697,"John Paul II Primary School, Belfast",Belfast,BT12 7FW,Catholic Maintained,Belfast West,URBAN,319.0,54.594043,-5.987119,0.47406839989507354,"Bunscoil an Tsleibhe Dhuibh, Belfast",Other Maintained,0.7943191430886318,"Holy Trinity Primary School, Belfast",0.47406839989507354,"Bunscoil an Tsleibhe Dhuibh, Belfast",Other Maintained,Sustainable,POINT (-5.987119 54.594043)
1036698,"St Patrick's Primary School, Belfast",Belfast,BT15 2BN,Catholic Maintained,Belfast North,URBAN,428.0,54.608719,-5.935578,0.4484619709164242,"Bunscoil Mhic Reachtain, Belfast",Controlled,0.76010507824059,"Holy Family Primary School, Belfast",0.4484619709164242,"Bunscoil Mhic Reachtain, Belfast",Controlled,Sustainable,POINT (-5.935578 54.608719)
1046501,Bunscoil Phobal Feirste,Belfast,BT11 9QS,Other Maintained,Belfast West,URBAN,421.0,54.574239,-6.004938,0.589615233014008,"St Oliver Plunkett Primary School, Belfast",Catholic Maintained,1.5299290379930615,"Gaelscoil na Mona, Belfast",0.589615233014008,"St Oliver Plunkett Primary School, Belfast",Catholic Maintained,Sustainable,POINT (-6.004938 54.574239)
1046571,"Gaelscoil Na Bhfal, Belfast",Belfast,BT12 6AW,Other Maintained,Belfast West,URBAN,216.0,54.590618,-5.96176,0.577523280908805,"Donegall Road Primary School, Belfast",Controlled,1.0215407365736393,"Gaelscoil an Lonnain, Belfast",0.577523280908805,"Donegall Road Primary School, Belfast",Controlled,Sustainable,POINT (-5.96176 54.590618)
1046593,"Bunscoil an Tsleibhe Dhuibh, Belfast",Belfast,BT12 7JL,Other Maintained,Belfast West,URBAN,220.0,54.592225,-5.980463,0.47406839989507354,"John Paul II Primary School, Belfast",Catholic Maintained,1.0574552114897122,"Gaelscoil na Mona, Belfast",0.47406839989507354,"John Paul II Primary School, Belfast",Catholic Maintained,Sustainable,POINT (-5.980463 54.592225)
1046596,Bunscoil Bheann Mhadagain,Belfast,BT14 6LA,Other Maintained,Belfast North,URBAN,199.0,54.616419,-5.945081,0.17159352313892717,"Cliftonville Integrated Primary School, Belfast",Controlled Integrated,2.0898374220453233,"Gaelscoil an Lonnain, Belfast",0.17159352313892717,"Cliftonville Integrated Primary School, Belfast",Controlled Integrated,Sustainable,POINT (-5.945081 54.616419)
1046641,"Scoil an Droichid, Belfast",Belfast,BT7 2EP,Other Maintained,Belfast South,URBAN,191.0,54.588406,-5.922093,0.552399573951861,"St Malachy's Primary School, Belfast",Catholic Maintained,2.248041111425889,"Gaelscoil an Lonnain, Belfast",0.552399573951861,"St Malachy's Primary School, Belfast",Catholic Maintained,Sustainable,POINT (-5.922093 54.588406)
1046671,"Gaelscoil na Mona, Belfast",Belfast,BT11 8QB,Other Maintained,Belfast West,URBAN,113.0,54.586173,-5.993123,0.16924171489909284,"Holy Trinity Primary School, Belfast",Catholic Maintained,1.0574552114897122,"Bunscoil an Tsleibhe Dhuibh, Belfast",0.16924171489909284,"Holy Trinity Primary School, Belfast",Catholic Maintained,Not Sustainable,POINT (-5.993123 54.586173)
1046672,"Gaelscoil an Lonnain, Belfast",Belfast,BT12 4PD,Other Maintained,Belfast West,URBAN,46.0,54.598146,-5.952671,0.3488008333848508,"St Peter's Primary School, Belfast",Catholic Maintained,1.0215407365736393,"Gaelscoil Na Bhfal, Belfast",0.3488008333848508,"St Peter's Primary School, Belfast",Catholic Maintained,Not Sustainable,POINT (-5.952671 54.598146)
1050232,"Harding Memorial Integrated Primary School, Belfast",Belfast,BT6 8PZ,Controlled Integrated,Belfast South,URBAN,218.0,54.582608,-5.89852,0.4456072912587989,Downey House Preparatory School,Voluntary,1.6291777232693547,"Forge Integrated Primary School, Belfast",0.4456072912587989,Downey House Preparatory School,Voluntary,Sustainable,POINT (-5.89852 54.582608)
1056483,"Cliftonville Integrated Primary School, Belfast",Belfast,BT14 6JQ,Controlled Integrated,Belfast North,URBAN,408.0,54.617719,-5.946517,0.17159352313892717,Bunscoil Bheann Mhadagain,Other Maintained,4.980031404016585,"Harding Memorial Integrated Primary School, Belfast",0.17159352313892717,Bunscoil Bheann Mhadagain,Other Maintained,Sustainable,POINT (-5.946517 54.617719)
1056535,"Forge Integrated Primary School, Belfast",Belfast,BT7 3HE,Controlled Integrated,Belfast South,URBAN,394.0,54.571426,-5.914854,0.2386873036908356,Rosetta Primary School,Controlled,1.6291777232693547,"Harding Memorial Integrated Primary School, Belfast",0.2386873036908356,Rosetta Primary School,Controlled,Sustainable,POINT (-5.914854 54.571426)
1066531,"Hazelwood Integrated Primary School, Newtownabbey",Newtownabbey,BT36 7EN,GMI,Belfast North,URBAN,450.0,54.653708,-5.930399,1.0137149434589572,"Our Lady of Lourdes Primary School, Belfast",Catholic Maintained,10.053303874162873,"Loughview Integrated Primary School, Belfast",1.0137149434589572,"Our Lady of Lourdes Primary School, Belfast",Catholic Maintained,Sustainable,POINT (-5.930399 54.653708)
1066580,"Cranmore Integrated Primary School, Belfast",Belfast,BT10 0JB,GMI,Belfast South,URBAN,233.0,54.567245,-5.9836,0.7759347643925627,"Finaghy Primary School, Belfast",Controlled,3.553904551862315,Oakwood Integrated Primary School,0.7759347643925627,"Finaghy Primary School, Belfast",Controlled,Sustainable,POINT (-5.9836 54.567245)
1620020,"Campbell College Junior School, Belfast",Belfast,BT4 3HJ,Voluntary,Belfast East,URBAN,203.0,54.601342361930584,-5.85227797613058,0.545553930658123,"Strathearn Preparatory School, Belfast",Voluntary,0.545553930658123,"Strathearn Preparatory School, Belfast",0.8539067299918409,"Greenwood Primary School, Belfast",Controlled,Sustainable,POINT (-5.85227797613058 54.601342361930584)
1620022,"Fullerton House Preparatory School, Belfast",Belfast,BT9 6BY,Voluntary,Belfast South,URBAN,142.0,54.582564,-5.938247,0.5777726331489994,"Botanic Primary School, Belfast",Controlled,1.3671578378253806,"Victoria College Prep Department, Belfast",0.5777726331489994,"Botanic Primary School, Belfast",Controlled,Sustainable,POINT (-5.938247 54.582564)
1620023,Downey House Preparatory School,Belfast,BT6 0AG,Voluntary,Belfast South,URBAN,49.0,54.582008,-5.905357,0.4456072912587989,"Harding Memorial Integrated Primary School, Belfast",Controlled Integrated,2.1203737347958986,"Fullerton House Preparatory School, Belfast",0.4456072912587989,"Harding Memorial Integrated Primary School, Belfast",Controlled Integrated,Not Sustainable,POINT (-5.905357 54.582008)
1620027,Inchmarlo,Belfast,BT9 6JR,Voluntary,Belfast South,URBAN,110.0,54.571507,-5.952244,0.16425151048598252,"Victoria College Prep Department, Belfast",Voluntary,0.16425151048598252,"Victoria College Prep Department, Belfast",0.9176635038946437,"St Bride's Primary School, Belfast",Catholic Maintained,Not Sustainable,POINT (-5.952244 54.571507)
1620028,Ben Madigan Preparatory School,Belfast,BT15 5GP,Voluntary,Belfast North,URBAN,104.0,54.642463,-5.936423,0.31161113353227937,"Our Lady of Lourdes Primary School, Belfast",Catholic Maintained,6.615127124223888,"Sullivan Upper Preparatory, Holywood",0.31161113353227937,"Our Lady of Lourdes Primary School, Belfast",Catholic Maintained,Not Sustainable,POINT (-5.936423 54.642463)
1620089,"Strathearn Preparatory School, Belfast",Belfast,BT4 2AU,Voluntary,Belfast East,URBAN,131.0,54.601525,-5.860742,0.5071583479129954,"Belmont Primary School, Belfast",Controlled,0.545553930658123,"Campbell College Junior School, Belfast",0.5071583479129954,"Belmont Primary School, Belfast",Controlled,Not Sustainable,POINT (-5.860742 54.601525)
1620264,"Victoria College Prep Department, Belfast",Belfast,BT9 6JA,Voluntary,Belfast South,URBAN,136.0,54.572426,-5.950249,0.16425151048598252,Inchmarlo,Voluntary,0.16425151048598252,Inchmarlo,0.7605006639254873,"St Bride's Primary School, Belfast",Catholic Maintained,Not Sustainable,POINT (-5.950249 54.572426)
2010380,Londonderry Model Primary School,Londonderry,BT48 7HJ,Controlled,Foyle,URBAN,281.0,55.001857,-7.327068,0.23605122424901256,"St Eugene's Primary School, Derry",Catholic Maintained,1.080607686265507,"Fountain Primary School, Londonderry",0.23605122424901256,"St Eugene's Primary School, Derry",Catholic Maintained,Sustainable,POINT (-7.327068 55.001857)
2010382,Ebrington Primary School,Londonderry,BT47 6LR,Controlled,Foyle,URBAN,480.0,55.00355,-7.294566,0.8112266756886581,Oakgrove Integrated Primary School,GMI,1.2371901921239867,Lisnagelvin Primary School,0.8112266756886581,Oakgrove Integrated Primary School,GMI,Sustainable,POINT (-7.294566 55.00355)
2011787,Kesh Primary School,Kesh,BT93 1RF,Controlled,Fermanagh And South Tyrone,RURAL,244.0,54.5185,-7.724128,4.447787687125906,"St Joseph's Primary School, Ederney",Catholic Maintained,7.363667363827579,Irvinestown Primary School,4.447787687125906,"St Joseph's Primary School, Ederney",Catholic Maintained,Sustainable,POINT (-7.724128 54.5185)
2011789,"Moat Primary School, Lisnaskea",Lisnaskea,BT92 0JH,Controlled,Fermanagh And South Tyrone,RURAL,135.0,54.250571,-7.441829,1.3449194238842064,"St Ronan's Primary School, Lisnaskea",Catholic Maintained,6.206955706061229,Maguiresbridge Primary School,1.3449194238842064,"St Ronan's Primary School, Lisnaskea",Catholic Maintained,Sustainable,POINT (-7.441829 54.250571)
2011860,Belleek No 2 Primary School,Belleek,BT93 3EZ,Controlled,Fermanagh And South Tyrone,RURAL,32.0,54.478584,-8.088848,0.3261581872832987,"St Davog's Primary School, Belleek",Catholic Maintained,18.949639695623446,Derrygonnelly Primary School,0.3261581872832987,"St Davog's Primary School, Belleek",Catholic Maintained,Not Sustainable,POINT (-8.088848 54.478584)
2011873,"Aghadrumsee Primary School, Roslea",Rosslea,BT92 7AU,Controlled,Fermanagh And South Tyrone,RURAL,31.0,54.228318,-7.273448,1.0219037029871747,"St Macartan's Primary School, Roslea",Catholic Maintained,7.614058464076846,Newtownbutler Primary School,1.0219037029871747,"St Macartan's Primary School, Roslea",Catholic Maintained,Not Sustainable,POINT (-7.273448 54.228318)
2011879,Newtownbutler Primary School,Newtownbutler,BT92 8JE,Controlled,Fermanagh And South Tyrone,RURAL,30.0,54.184655,-7.363636,0.9064509188898711,"St Mary's Primary School, Newtownbutler",Catholic Maintained,7.614058464076846,"Aghadrumsee Primary School, Roslea",0.9064509188898711,"St Mary's Primary School, Newtownbutler",Catholic Maintained,Not Sustainable,POINT (-7.363636 54.184655)
2011881,Florencecourt Primary School,Enniskillen,BT92 1BZ,Controlled,Fermanagh And South Tyrone,RURAL,140.0,54.267656,-7.705226,1.6724538965542646,"St Mary's Primary School, Killesher",Catholic Maintained,7.496364427336127,"Jones Memorial Primary School, Enniskillen",1.6724538965542646,"St Mary's Primary School, Killesher",Catholic Maintained,Sustainable,POINT (-7.705226 54.267656)
2011893,Ballinamallard Primary School,Ballinamallard,BT94 2NY,Controlled,Fermanagh And South Tyrone,RURAL,153.0,54.423759,-7.595463,4.20850716367982,"Queen Elizabeth II Primary School, Kilskeery",Controlled,4.20850716367982,"Queen Elizabeth II Primary School, Kilskeery",6.502309422854721,"St Paul's Primary School, Irvinestown",Catholic Maintained,Sustainable,POINT (-7.595463 54.423759)
2011894,Brookeborough Primary School,Brookeborough,BT94 4EZ,Controlled,Fermanagh And South Tyrone,RURAL,64.0,54.315124,-7.405276,0.23558886947748778,"St Mary's Primary School, Brookeborough",Catholic Maintained,5.180316708322454,Maguiresbridge Primary School,0.23558886947748778,"St Mary's Primary School, Brookeborough",Catholic Maintained,Not Sustainable,POINT (-7.405276 54.315124)
2011899,Derrygonnelly Primary School,Derrygonnelly,BT93 6HY,Controlled,Fermanagh And South Tyrone,RURAL,57.0,54.418231,-7.814745,0.9014575155190924,"St Patrick's Primary School, Derrygonnelly",Catholic Maintained,12.593638465458033,Kesh Primary School,0.9014575155190924,"St Patrick's Primary School, Derrygonnelly",Catholic Maintained,Not Sustainable,POINT (-7.814745 54.418231)
2012052,Culmore Primary School,Londonderry,BT48 8JH,Controlled,Foyle,RURAL,55.0,55.047404,-7.2733,0.5620483618499165,"Hollybush Primary School, Culmore",Catholic Maintained,3.998897451678572,Greenhaw Primary School,0.5620483618499165,"Hollybush Primary School, Culmore",Catholic Maintained,Not Sustainable,POINT (-7.2733 55.047404)
2012095,Ballougry Primary School,Londonderry,BT48 9XN,Controlled,Foyle,RURAL,38.0,54.973231,-7.381453,2.119624258825531,Newbuildings Primary School,Controlled,2.119624258825531,Newbuildings Primary School,2.3210015417139807,"St Columba's Primary School, Newbuildings",Catholic Maintained,Not Sustainable,POINT (-7.381453 54.973231)
2012227,Drumahoe Primary School,Londonderry,BT47 3SD,Controlled,Foyle,URBAN,277.0,54.978992,-7.274787,1.01513733734303,"Ashlea S, Tullyally",Controlled,1.01513733734303,"Ashlea S, Tullyally",1.5590721572557489,Glendermott Primary School,Catholic Maintained,Sustainable,POINT (-7.274787 54.978992)
2012245,Eglinton Primary School,Londonderry,BT47 3AH,Controlled,Foyle,RURAL,204.0,55.022296,-7.181148,0.6166605795761921,"Broadbridge Primary School, Eglinton",Catholic Maintained,6.502143924483983,Culmore Primary School,0.6166605795761921,"Broadbridge Primary School, Eglinton",Catholic Maintained,Sustainable,POINT (-7.181148 55.022296)
2012261,Newbuildings Primary School,New Buildings,BT47 2RL,Controlled,Foyle,RURAL,183.0,54.959422,-7.358562,0.24231527294724567,"St Columba's Primary School, Newbuildings",Catholic Maintained,2.119624258825531,Ballougry Primary School,0.24231527294724567,"St Columba's Primary School, Newbuildings",Catholic Maintained,Sustainable,POINT (-7.358562 54.959422)
2012298,Ballykelly Primary School,Ballykelly,BT49 9JS,Controlled,East Londonderry,RURAL,293.0,55.036151,-7.018907,2.8866256671523995,"St Finlough's Primary School, Sistrakeel",Catholic Maintained,5.032833343364871,"Drumachose Primary School, Limavady",2.8866256671523995,"St Finlough's Primary School, Sistrakeel",Catholic Maintained,Sustainable,POINT (-7.018907 55.036151)
2012344,"McClintock Primary School, Seskinore",Omagh,BT78 1UQ,Controlled,West Tyrone,RURAL,119.0,54.516792,-7.252568,3.5258912695621403,"Sacred Heart Primary School, Tattyreagh",Catholic Maintained,4.421752839946982,"Denamona Primary School, Fintona",3.5258912695621403,"Sacred Heart Primary School, Tattyreagh",Catholic Maintained,Sustainable,POINT (-7.252568 54.516792)
2012638,"Edwards Primary School, Castlederg",Castlederg,BT81 7HY,Controlled,West Tyrone,RURAL,249.0,54.712165,-7.587335,0.714783844122089,"St Patrick's Primary School, Castlederg",Catholic Maintained,4.591749574055454,"Killen Primary School, Castlederg",0.714783844122089,"St Patrick's Primary School, Castlederg",Catholic Maintained,Sustainable,POINT (-7.587335 54.712165)
2012641,"Killen Primary School, Castlederg",Killen,BT81 7SD,Controlled,West Tyrone,RURAL,140.0,54.676376,-7.62298,4.591749574055454,"Edwards Primary School, Castlederg",Controlled,4.591749574055454,"Edwards Primary School, Castlederg",4.7303508239443826,"St Patrick's Primary School, Castlederg",Catholic Maintained,Sustainable,POINT (-7.62298 54.676376)
2012648,"Gillygooley Primary School, Omagh",Omagh,BT78 5PX,Controlled,West Tyrone,RURAL,19.0,54.611252,-7.386787,4.247992485035839,"St Conor's Primary School, Omagh",Catholic Maintained,5.917677803473649,"Gibson Primary School, Omagh",4.247992485035839,"St Conor's Primary School, Omagh",Catholic Maintained,Not Sustainable,POINT (-7.386787 54.611252)
2012660,"Denamona Primary School, Fintona",Fintona,BT78 2BN,Controlled,West Tyrone,RURAL,78.0,54.497618,-7.312571,0.8522216813613637,"St Lawrence's Primary School, Fintona",Catholic Maintained,4.421752839946982,"McClintock Primary School, Seskinore",0.8522216813613637,"St Lawrence's Primary School, Fintona",Catholic Maintained,Not Sustainable,POINT (-7.312571 54.497618)
2012669,"Queen Elizabeth II Primary School, Kilskeery",Trillick,BT78 3RJ,Controlled,West Tyrone,RURAL,38.0,54.442087,-7.538532,3.2600733886757896,"St Scire's Primary School, Trillick",Catholic Maintained,4.20850716367982,Ballinamallard Primary School,3.2600733886757896,"St Scire's Primary School, Trillick",Catholic Maintained,Not Sustainable,POINT (-7.538532 54.442087)
2012671,"Langfield Primary School, Drumquin",Drumquin,BT78 4PG,Controlled,West Tyrone,RURAL,18.0,54.616985,-7.493971,0.6511531484261136,"St Joseph's Primary School, Drumquin",Catholic Maintained,6.931049736123055,"Gillygooley Primary School, Omagh",0.6511531484261136,"St Joseph's Primary School, Drumquin",Catholic Maintained,Not Sustainable,POINT (-7.493971 54.616985)
2012691,Omagh County Primary School,Omagh,BT79 0AJ,Controlled,West Tyrone,URBAN,376.0,54.600998,-7.292169,0.4188847592946845,"Gibson Primary School, Omagh",Controlled,0.4188847592946845,"Gibson Primary School, Omagh",1.1694037173106007,"Holy Family Primary School, Omagh",Catholic Maintained,Sustainable,POINT (-7.292169 54.600998)
2012707,"Dromore Primary School, Tyrone",Dromore,BT78 3EE,Controlled,West Tyrone,RURAL,38.0,54.510784,-7.454496,0.9802496134913143,"St Dympna's Primary School, Dromore",Catholic Maintained,8.984650639346913,"Lack Primary School, Enniskillen",0.9802496134913143,"St Dympna's Primary School, Dromore",Catholic Maintained,Not Sustainable,POINT (-7.454496 54.510784)
2012708,Strabane Primary School,Strabane,BT82 8DX,Controlled,West Tyrone,URBAN,272.0,54.83205,-7.461078,1.0376457969798594,St Catherine’s Primary School,Catholic Maintained,4.333465895007109,"Artigarvan Primary School, Strabane",1.0376457969798594,St Catherine’s Primary School,Catholic Maintained,Sustainable,POINT (-7.461078 54.83205)
2012711,"Donemana Primary School, Strabane",Dunnamanagh,BT82 0PH,Controlled,West Tyrone,RURAL,101.0,54.877979,-7.302308,0.8556393871066205,"St Michael's Primary School, Dunamanagh",Catholic Maintained,7.165766189102876,"Artigarvan Primary School, Strabane",0.8556393871066205,"St Michael's Primary School, Dunamanagh",Catholic Maintained,Not Sustainable,POINT (-7.302308 54.877979)
2016003,"Jones Memorial Primary School, Enniskillen",Enniskillen,BT74 5QF,Controlled,Fermanagh And South Tyrone,URBAN,136.0,54.328868,-7.656817,2.606244758163208,"Holy Trinity Primary School, Mill Street",Catholic Maintained,2.6450888845163765,Enniskillen Model Primary School,2.606244758163208,"Holy Trinity Primary School, Mill Street",Catholic Maintained,Not Sustainable,POINT (-7.656817 54.328868)
2016029,"Drumachose Primary School, Limavady",Limavady,BT49 0BS,Controlled,East Londonderry,URBAN,410.0,55.051176,-6.94439,0.18249931896456834,"Gaelscoil Leim An Mhadaidh, Limavady",Other Maintained,1.2413316020151488,Limavady Central Primary School,0.18249931896456834,"Gaelscoil Leim An Mhadaidh, Limavady",Other Maintained,Sustainable,POINT (-6.94439 55.051176)
2016068,"Artigarvan Primary School, Strabane",Artigarvan,BT82 0HN,Controlled,West Tyrone,RURAL,170.0,54.855847,-7.407479,2.7441513994797315,"St Mary's Primary School, Cloughcor",Catholic Maintained,4.333465895007109,Strabane Primary School,2.7441513994797315,"St Mary's Primary School, Cloughcor",Catholic Maintained,Sustainable,POINT (-7.407479 54.855847)
2016071,Greenhaw Primary School,Londonderry,BT48 8BA,Controlled,Foyle,URBAN,321.0,55.021889,-7.317524,0.09589538931805304,"St Patrick's Primary School, Pennyburn",Catholic Maintained,2.3090865231874362,Londonderry Model Primary School,0.09589538931805304,"St Patrick's Primary School, Pennyburn",Catholic Maintained,Sustainable,POINT (-7.317524 55.021889)
2016089,"Gibson Primary School, Omagh",Omagh,BT79 7EG,Controlled,West Tyrone,URBAN,303.0,54.604154,-7.29572,0.4188847592946845,Omagh County Primary School,Controlled,0.4188847592946845,Omagh County Primary School,0.9614186178786996,"Holy Family Primary School, Omagh",Catholic Maintained,Sustainable,POINT (-7.29572 54.604154)
2016102,Tempo Primary School,Tempo,BT94 3LU,Controlled,Fermanagh And South Tyrone,RURAL,84.0,54.377149,-7.461287,0.9799736148671137,"St Mary's Primary School, Tempo",Catholic Maintained,7.793972143060554,Brookeborough Primary School,0.9799736148671137,"St Mary's Primary School, Tempo",Catholic Maintained,Not Sustainable,POINT (-7.461287 54.377149)
2016124,"Ashlea S, Tullyally",Londonderry,BT47 3QT,Controlled,Foyle,URBAN,101.0,54.973507,-7.287503,1.01513733734303,Drumahoe Primary School,Controlled,1.01513733734303,Drumahoe Primary School,1.6091123964245624,Glendermott Primary School,Catholic Maintained,Not Sustainable,POINT (-7.287503 54.973507)
2016127,Maguiresbridge Primary School,Maguiresbridge,BT94 4PJ,Controlled,Fermanagh And South Tyrone,RURAL,122.0,54.301344,-7.481555,1.6693370809455486,"St Mary's Primary School, Maguiresbridge",Catholic Maintained,4.125641638975113,Lisbellaw Primary School,1.6693370809455486,"St Mary's Primary School, Maguiresbridge",Catholic Maintained,Sustainable,POINT (-7.481555 54.301344)
2016151,Irvinestown Primary School,Irvinestown,BT94 1DY,Controlled,Fermanagh And South Tyrone,RURAL,173.0,54.472202,-7.642599,0.34348711887062544,"St Paul's Primary School, Irvinestown",Catholic Maintained,6.1889417491833125,Ballinamallard Primary School,0.34348711887062544,"St Paul's Primary School, Irvinestown",Catholic Maintained,Sustainable,POINT (-7.642599 54.472202)
2016152,Enniskillen Model Primary School,Enniskillen,BT74 6HZ,Controlled,Fermanagh And South Tyrone,URBAN,426.0,54.341467,-7.62221,1.6056641039790487,"Holy Trinity Primary School, Mill Street",Catholic Maintained,2.6450888845163765,"Jones Memorial Primary School, Enniskillen",1.6056641039790487,"Holy Trinity Primary School, Mill Street",Catholic Maintained,Sustainable,POINT (-7.62221 54.341467)
2016184,"Lack Primary School, Enniskillen",Lack,BT93 0BU,Controlled,Fermanagh And South Tyrone,RURAL,22.0,54.546551,-7.579352,5.400174656781108,"St Joseph's Primary School, Ederney",Catholic Maintained,8.984650639346913,"Dromore Primary School, Tyrone",5.400174656781108,"St Joseph's Primary School, Ederney",Catholic Maintained,Not Sustainable,POINT (-7.579352 54.546551)
2016203,Lisnagelvin Primary School,Londonderry,BT47 5QZ,Controlled,Foyle,URBAN,572.0,54.99271,-7.290194,1.1581870459085417,"Chapel Road Primary School, Londonderry",Catholic Maintained,1.2371901921239867,Ebrington Primary School,1.1581870459085417,"Chapel Road Primary School, Londonderry",Catholic Maintained,Sustainable,POINT (-7.290194 54.99271)
2016218,Lisbellaw Primary School,Lisbellaw,BT94 5BF,Controlled,Fermanagh And South Tyrone,RURAL,199.0,54.313563,-7.541601,1.1679475275847935,"Tattygar Primary School, Lisbellaw",Catholic Maintained,4.125641638975113,Maguiresbridge Primary School,1.1679475275847935,"Tattygar Primary School, Lisbellaw",Catholic Maintained,Sustainable,POINT (-7.541601 54.313563)
2016262,Newtownstewart Model Primary School,Newtownstewart,BT78 4EX,Controlled,West Tyrone,RURAL,70.0,54.717583,-7.393252,0.8986696347881976,"St Patrick's Primary School, Newtownstewart",Catholic Maintained,3.1595967695296014,Ardstraw Jubilee Primary School,0.8986696347881976,"St Patrick's Primary School, Newtownstewart",Catholic Maintained,Not Sustainable,POINT (-7.393252 54.717583)
2016372,Cumber Claudy Primary School,Claudy,BT47 4HX,Controlled,East Londonderry,RURAL,147.0,54.911407,-7.16597,0.6044157565689311,"St Colmcille's Primary School, Claudy",Catholic Maintained,9.477601216826766,"Donemana Primary School, Strabane",0.6044157565689311,"St Colmcille's Primary School, Claudy",Catholic Maintained,Sustainable,POINT (-7.16597 54.911407)
2016395,"Gortin Primary School, Omagh",Gortin,BT79 8NJ,Controlled,West Tyrone,RURAL,63.0,54.719246,-7.23623,0.6151244937253396,"St Patrick's Primary School, Gortin",Catholic Maintained,10.086549584000194,Newtownstewart Model Primary School,0.6151244937253396,"St Patrick's Primary School, Gortin",Catholic Maintained,Not Sustainable,POINT (-7.23623 54.719246)
2016426,Limavady Central Primary School,Limavady,BT49 0NB,Controlled,East Londonderry,URBAN,316.0,55.040775,-6.937312,0.8832395843374616,"Roe Valley Integrated Primary School, Limavady",GMI,1.2413316020151488,"Drumachose Primary School, Limavady",0.8832395843374616,"Roe Valley Integrated Primary School, Limavady",GMI,Sustainable,POINT (-6.937312 55.040775)
2016564,"Fountain Primary School, Londonderry",Londonderry,BT48 6RE,Controlled,Foyle,URBAN,77.0,54.992945,-7.320312,0.4684479933802554,Longtower Primary School,Catholic Maintained,1.080607686265507,Londonderry Model Primary School,0.4684479933802554,Longtower Primary School,Catholic Maintained,Not Sustainable,POINT (-7.320312 54.992945)
2016645,"Bready Jubilee Primary School, Strabane",Bready,BT82 0DN,Controlled,West Tyrone,RURAL,121.0,54.922304,-7.424609,4.731190183281678,"St Mary's Primary School, Cloughcor",Catholic Maintained,5.90182992426328,Newbuildings Primary School,4.731190183281678,"St Mary's Primary School, Cloughcor",Catholic Maintained,Sustainable,POINT (-7.424609 54.922304)
2016656,"Drumrane Primary School, Dungiven",Dungiven,BT47 4NL,Controlled,East Londonderry,RURAL,141.0,54.969592,-6.939161,1.5277461652403594,"Gaelscoil Neachtain, Dungiven",Controlled,1.5277461652403594,"Gaelscoil Neachtain, Dungiven",2.466509664664255,"St Mary's Primary School, Gortnaghey",Catholic Maintained,Sustainable,POINT (-6.939161 54.969592)
2016663,"Cooley Primary School, Sixmilecross",Sixmilecross,BT79 9DH,Controlled,West Tyrone,RURAL,90.0,54.556212,-7.124179,3.2987037558152696,"St Oliver Plunkett Primary School, Beragh",Catholic Maintained,9.371168969215946,"McClintock Primary School, Seskinore",3.2987037558152696,"St Oliver Plunkett Primary School, Beragh",Catholic Maintained,Not Sustainable,POINT (-7.124179 54.556212)
2016700,"Gaelscoil Neachtain, Dungiven",Dungiven,BT47 4RF,Controlled,East Londonderry,RURAL,154.0,54.960912,-6.920609,1.5277461652403594,"Drumrane Primary School, Dungiven",Controlled,1.5277461652403594,"Drumrane Primary School, Dungiven",3.2089016889449486,"St Mary's Primary School, Gortnaghey",Catholic Maintained,Sustainable,POINT (-6.920609 54.960912)
2016701,Ardstraw Jubilee Primary School,Newtownstewart,BT78 4LA,Controlled,West Tyrone,RURAL,88.0,54.730514,-7.437064,3.1595967695296014,Newtownstewart Model Primary School,Controlled,3.1595967695296014,Newtownstewart Model Primary School,3.4647084734050932,"St Eugene's Primary School, Victoria Bridge",Catholic Maintained,Not Sustainable,POINT (-7.437064 54.730514)
2030364,Rosemount Primary School,Londonderry,BT48 9DD,Catholic Maintained,Foyle,URBAN,375.0,55.00123,-7.333908,0.4417669541893912,Londonderry Model Primary School,Controlled,0.45345836507373044,"St Eugene's Primary School, Derry",0.4417669541893912,Londonderry Model Primary School,Controlled,Sustainable,POINT (-7.333908 55.00123)
2030373,Nazareth House Primary School,Londonderry,BT48 6UN,Catholic Maintained,Foyle,URBAN,228.0,54.990118,-7.328968,0.3008282178199725,"Gaelscoil Eadain Mhoir, Derry",Other Maintained,0.3373970462623598,Longtower Primary School,0.3008282178199725,"Gaelscoil Eadain Mhoir, Derry",Other Maintained,Sustainable,POINT (-7.328968 54.990118)
2030381,"Holy Child Primary School, Derry",Londonderry,BT48 9QQ,Catholic Maintained,Foyle,URBAN,324.0,54.995642,-7.345406,0.4525623850622159,"St John's Primary School, Bligh's Lane",Catholic Maintained,0.4525623850622159,"St John's Primary School, Bligh's Lane",0.9811234163605099,"Gaelscoil Eadain Mhoir, Derry",Other Maintained,Sustainable,POINT (-7.345406 54.995642)
2031828,"St Patrick's Primary School, Mullanaskea",Tempo,BT94 3AD,Catholic Maintained,Fermanagh And South Tyrone,RURAL,175.0,54.354685,-7.561968,3.9447262204532203,"Tattygar Primary School, Lisbellaw",Catholic Maintained,3.9447262204532203,"Tattygar Primary School, Lisbellaw",4.171834404907534,Enniskillen Model Primary School,Controlled,Sustainable,POINT (-7.561968 54.354685)
2031863,"Tattygar Primary School, Lisbellaw",Lisbellaw,BT94 5GT,Catholic Maintained,Fermanagh And South Tyrone,RURAL,59.0,54.323129,-7.534164,1.1679475275847935,Lisbellaw Primary School,Controlled,3.9447262204532203,"St Patrick's Primary School, Mullanaskea",1.1679475275847935,Lisbellaw Primary School,Controlled,Not Sustainable,POINT (-7.534164 54.323129)
2031868,"St Tierney's Primary School, Roslea",Rosslea,BT92 7JS,Catholic Maintained,Fermanagh And South Tyrone,RURAL,120.0,54.244237,-7.179598,5.399838862956068,"St Macartan's Primary School, Roslea",Catholic Maintained,5.399838862956068,"St Macartan's Primary School, Roslea",6.350732871006411,"Aghadrumsee Primary School, Roslea",Controlled,Sustainable,POINT (-7.179598 54.244237)
2031869,"St Mary's Primary School, Newtownbutler",Newtownbutler,BT92 8JJ,Catholic Maintained,Fermanagh And South Tyrone,RURAL,176.0,54.176603,-7.361462,0.9064509188898711,Newtownbutler Primary School,Controlled,4.862665257724592,"St Joseph's Primary School, Donagh",0.9064509188898711,Newtownbutler Primary School,Controlled,Sustainable,POINT (-7.361462 54.176603)
2031874,"St Patrick's Primary School, Derrygonnelly",Derrygonnelly,BT93 6LR,Catholic Maintained,Fermanagh And South Tyrone,RURAL,129.0,54.423359,-7.825537,0.9014575155190924,Derrygonnelly Primary School,Controlled,6.761458429883891,"Killyhommon Primary School, Enniskillen",0.9014575155190924,Derrygonnelly Primary School,Controlled,Sustainable,POINT (-7.825537 54.423359)
2031876,"St Mary's Primary School, Brookeborough",Brookeborough,BT94 4HY,Catholic Maintained,Fermanagh And South Tyrone,RURAL,65.0,54.31662,-7.402704,0.23558886947748778,Brookeborough Primary School,Controlled,5.005650265211705,"St Mary's Primary School, Maguiresbridge",0.23558886947748778,Brookeborough Primary School,Controlled,Not Sustainable,POINT (-7.402704 54.31662)
2031880,"St Ninnidh's Primary School, Derrylin",Derrylin,BT92 9JZ,Catholic Maintained,Fermanagh And South Tyrone,RURAL,143.0,54.195598,-7.586252,5.192701128559382,"St Naile's Primary School, Kinawley",Catholic Maintained,5.192701128559382,"St Naile's Primary School, Kinawley",11.032616201058296,"Bunscoil an Traonaigh, Lisnaskea",Other Maintained,Sustainable,POINT (-7.586252 54.195598)
2031884,"St Mary's Primary School, Killesher",Enniskillen,BT92 3ET,Catholic Maintained,Fermanagh And South Tyrone,RURAL,86.0,54.255454,-7.69017,1.6724538965542646,Florencecourt Primary School,Controlled,4.180884791623411,"St Mary's Primary School, Mullymesker",1.6724538965542646,Florencecourt Primary School,Controlled,Not Sustainable,POINT (-7.69017 54.255454)
2031887,"St John the Baptist Primary School, Roscor",Belleek,BT93 3DP,Catholic Maintained,Fermanagh And South Tyrone,RURAL,22.0,54.466277,-8.0356,3.702775085985684,Belleek No 2 Primary School,Controlled,3.9312308501571014,"St Davog's Primary School, Belleek",3.702775085985684,Belleek No 2 Primary School,Controlled,Not Sustainable,POINT (-8.0356 54.466277)
2031890,"St Mary's Primary School, Mullymesker",Bellanaleck,BT92 2AB,Catholic Maintained,Fermanagh And South Tyrone,RURAL,136.0,54.290964,-7.669003,3.4995736860071265,Florencecourt Primary School,Controlled,4.180884791623411,"St Mary's Primary School, Killesher",3.4995736860071265,Florencecourt Primary School,Controlled,Sustainable,POINT (-7.669003 54.290964)
2031895,"St Mary's Primary School, Maguiresbridge",Maguiresbridge,BT94 4RG,Catholic Maintained,Fermanagh And South Tyrone,RURAL,157.0,54.289934,-7.464837,1.6693370809455486,Maguiresbridge Primary School,Controlled,3.3243458151601186,"St Ronan's Primary School, Lisnaskea",1.6693370809455486,Maguiresbridge Primary School,Controlled,Sustainable,POINT (-7.464837 54.289934)
2031897,"Killyhommon Primary School, Enniskillen",Enniskillen,BT74 8BZ,Catholic Maintained,Fermanagh And South Tyrone,RURAL,72.0,54.363873,-7.803884,6.085107258493253,Derrygonnelly Primary School,Controlled,6.761458429883891,"St Patrick's Primary School, Derrygonnelly",6.085107258493253,Derrygonnelly Primary School,Controlled,Not Sustainable,POINT (-7.803884 54.363873)
2031898,"St Paul's Primary School, Irvinestown",Irvinestown,BT94 1EY,Catholic Maintained,Fermanagh And South Tyrone,RURAL,232.0,54.474003,-7.646918,0.34348711887062544,Irvinestown Primary School,Controlled,6.314022376962734,"Knocknagor Primary School, Trillick",0.34348711887062544,Irvinestown Primary School,Controlled,Sustainable,POINT (-7.646918 54.474003)
2031901,"St Ronan's Primary School, Lisnaskea",Lisnaskea,BT92 0LA,Catholic Maintained,Fermanagh And South Tyrone,RURAL,355.0,54.260906,-7.452585,0.7027325847157064,"Bunscoil an Traonaigh, Lisnaskea",Other Maintained,3.3243458151601186,"St Mary's Primary School, Maguiresbridge",0.7027325847157064,"Bunscoil an Traonaigh, Lisnaskea",Other Maintained,Sustainable,POINT (-7.452585 54.260906)
2032212,Glendermott Primary School,Londonderry,BT47 3QZ,Catholic Maintained,Foyle,RURAL,199.0,54.965896,-7.266061,1.5590721572557489,Drumahoe Primary School,Controlled,3.416744735369916,"Sacred Heart Primary School, Trench Road",1.5590721572557489,Drumahoe Primary School,Controlled,Sustainable,POINT (-7.266061 54.965896)
2032263,"St Canice's Primary School, Feeny",Feeny,BT47 4TW,Catholic Maintained,East Londonderry,RURAL,96.0,54.8857,-7.015088,4.496359884725208,"St Mary's Primary School, Altinure",Catholic Maintained,4.496359884725208,"St Mary's Primary School, Altinure",10.061973558097128,Cumber Claudy Primary School,Controlled,Not Sustainable,POINT (-7.015088 54.8857)
2032278,"Broadbridge Primary School, Eglinton",Londonderry,BT47 3PG,Catholic Maintained,Foyle,RURAL,403.0,55.027708,-7.179036,0.6166605795761921,Eglinton Primary School,Controlled,4.457278008606267,"Faughanvale Primary School, Greysteel",0.6166605795761921,Eglinton Primary School,Controlled,Sustainable,POINT (-7.179036 55.027708)
2032286,"St Matthew's Primary School, Drumsurn",Limavady,BT49 0PX,Catholic Maintained,East Londonderry,RURAL,108.0,54.985183,-6.856552,4.898694766054123,"Gaelscoil Neachtain, Dungiven",Controlled,7.882443670259232,"St Canice Primary School, Dungiven",4.898694766054123,"Gaelscoil Neachtain, Dungiven",Controlled,Sustainable,POINT (-6.856552 54.985183)
2032287,"Termoncanice Primary School, Limavady",Limavady,BT49 9BH,Catholic Maintained,East Londonderry,URBAN,502.0,55.046781,-6.951358,0.6601888097588671,"Drumachose Primary School, Limavady",Controlled,6.742528532031065,"St Finlough's Primary School, Sistrakeel",0.6601888097588671,"Drumachose Primary School, Limavady",Controlled,Sustainable,POINT (-6.951358 55.046781)
2032294,"St Mary's Primary School, Altinure",Claudy,BT47 4DP,Catholic Maintained,East Londonderry,RURAL,124.0,54.867191,-7.077576,4.496359884725208,"St Canice's Primary School, Feeny",Catholic Maintained,4.496359884725208,"St Canice's Primary School, Feeny",7.492116166637102,Cumber Claudy Primary School,Controlled,Sustainable,POINT (-7.077576 54.867191)
2032573,"St Brigid's Primary School, Altamuskin",Sixmilecross,BT79 9JA,Catholic Maintained,West Tyrone,RURAL,48.0,54.524815,-7.085406,4.294662510790518,"Cooley Primary School, Sixmilecross",Controlled,5.228083001560989,"Roscavey Primary School, Beragh",4.294662510790518,"Cooley Primary School, Sixmilecross",Controlled,Not Sustainable,POINT (-7.085406 54.524815)
2032603,"Tummery Primary School, Dromore",Dromore,BT78 3JZ,Catholic Maintained,West Tyrone,RURAL,40.0,54.494715,-7.522985,2.0518037195538996,"Knocknagor Primary School, Trillick",Catholic Maintained,2.0518037195538996,"Knocknagor Primary School, Trillick",4.769469259678094,"Dromore Primary School, Tyrone",Controlled,Not Sustainable,POINT (-7.522985 54.494715)
2032607,"St Mary's Primary School, Killyclogher",Omagh,BT79 7LT,Catholic Maintained,West Tyrone,URBAN,332.0,54.60895,-7.269869,1.454733429600293,"Gaelscoil Na gCrann, Omagh",Other Maintained,2.043071428058029,"Christ the King Primary School, Omagh",1.454733429600293,"Gaelscoil Na gCrann, Omagh",Other Maintained,Sustainable,POINT (-7.269869 54.60895)
2032628,"Knocknagor Primary School, Trillick",Trillick,BT78 3TX,Catholic Maintained,West Tyrone,RURAL,49.0,54.492553,-7.554537,2.0518037195538996,"Tummery Primary School, Dromore",Catholic Maintained,2.0518037195538996,"Tummery Primary School, Dromore",5.7060918014999205,"Queen Elizabeth II Primary School, Kilskeery",Controlled,Not Sustainable,POINT (-7.554537 54.492553)
2032662,"St Brigid's Primary School, Mountfield",Mountfield,BT79 7PT,Catholic Maintained,West Tyrone,RURAL,62.0,54.651132,-7.172937,5.2533788543260505,"St Teresa's Primary School, Loughmacrory",Catholic Maintained,5.2533788543260505,"St Teresa's Primary School, Loughmacrory",7.796409274609043,"Gaelscoil Na gCrann, Omagh",Other Maintained,Not Sustainable,POINT (-7.172937 54.651132)
2032676,"St Patrick's Primary School, Gortin",Gortin,BT79 8PU,Catholic Maintained,West Tyrone,RURAL,84.0,54.716106,-7.228345,0.6151244937253396,"Gortin Primary School, Omagh",Controlled,5.609821268457648,"St Eugene's Primary School, Tircur",0.6151244937253396,"Gortin Primary School, Omagh",Controlled,Not Sustainable,POINT (-7.228345 54.716106)
2032682,"St Eugene's Primary School, Victoria Bridge",Victoria Bridge,BT82 9JH,Catholic Maintained,West Tyrone,RURAL,73.0,54.759388,-7.457354,2.9405102671996457,Sion Mills Primary School,Controlled Integrated,3.6939582139234384,"St Theresa's Primary School, Glebe",2.9405102671996457,Sion Mills Primary School,Controlled Integrated,Not Sustainable,POINT (-7.457354 54.759388)
2032684,"St Lawrence's Primary School, Fintona",Fintona,BT78 2NR,Catholic Maintained,West Tyrone,RURAL,237.0,54.493603,-7.323812,0.8522216813613637,"Denamona Primary School, Fintona",Controlled,5.214109269275349,"Sacred Heart Primary School, Tattyreagh",0.8522216813613637,"Denamona Primary School, Fintona",Controlled,Sustainable,POINT (-7.323812 54.493603)
2032685,"St Brigid's Primary School, Cranagh",Plumbridge,BT79 8LR,Catholic Maintained,West Tyrone,RURAL,25.0,54.780986,-7.08428,9.595186941268771,"St Mary's Primary School, Altinure",Catholic Maintained,9.595186941268771,"St Mary's Primary School, Altinure",11.925679479269203,"Gortin Primary School, Omagh",Controlled,Not Sustainable,POINT (-7.08428 54.780986)
2032688,"St Eugene's Primary School, Tircur",Omagh,BT79 7SN,Catholic Maintained,West Tyrone,RURAL,18.0,54.676899,-7.283284,5.59595511470769,"Gortin Primary School, Omagh",Controlled,5.609821268457648,"St Patrick's Primary School, Gortin",5.59595511470769,"Gortin Primary School, Omagh",Controlled,Not Sustainable,POINT (-7.283284 54.676899)
2032694,"St Caireall's Primary School, Castlederg",Castlederg,BT81 7XF,Catholic Maintained,West Tyrone,RURAL,133.0,54.689938,-7.70262,5.336877640664168,"Killen Primary School, Castlederg",Controlled,7.423950478171259,"St Patrick's Primary School, Castlederg",5.336877640664168,"Killen Primary School, Castlederg",Controlled,Sustainable,POINT (-7.70262 54.689938)
2032700,"St Joseph's Primary School, Drumquin",Drumquin,BT78 4QY,Catholic Maintained,West Tyrone,RURAL,144.0,54.611889,-7.488989,0.6511531484261136,"Langfield Primary School, Drumquin",Controlled,7.545753231958195,"All Saint's Primary School, Tattysallagh",0.6511531484261136,"Langfield Primary School, Drumquin",Controlled,Sustainable,POINT (-7.488989 54.611889)
2032704,"St Ronan's Primary School, Recarson",Omagh,BT79 0NE,Catholic Maintained,West Tyrone,RURAL,117.0,54.595891,-7.235386,1.292933690773846,"Gaelscoil Na gCrann, Omagh",Other Maintained,2.6535925717591042,"St Mary's Primary School, Killyclogher",1.292933690773846,"Gaelscoil Na gCrann, Omagh",Other Maintained,Sustainable,POINT (-7.235386 54.595891)
2032705,"St Patrick's Primary School, Eskra",Omagh,BT78 2RJ,Catholic Maintained,West Tyrone,RURAL,112.0,54.484556,-7.201639,3.697642834699682,"Roscavey Primary School, Beragh",Catholic Maintained,3.697642834699682,"Roscavey Primary School, Beragh",4.864436988916391,"McClintock Primary School, Seskinore",Controlled,Sustainable,POINT (-7.201639 54.484556)
2032721,"Sacred Heart Primary School, Tattyreagh",Omagh,BT78 1LA,Catholic Maintained,West Tyrone,RURAL,82.0,54.537255,-7.294308,3.5258912695621403,"McClintock Primary School, Seskinore",Controlled,5.214109269275349,"St Lawrence's Primary School, Fintona",3.5258912695621403,"McClintock Primary School, Seskinore",Controlled,Not Sustainable,POINT (-7.294308 54.537255)
2032723,"Roscavey Primary School, Beragh",Beragh,BT79 0RE,Catholic Maintained,West Tyrone,RURAL,53.0,54.508016,-7.161058,3.697642834699682,"St Patrick's Primary School, Eskra",Catholic Maintained,3.697642834699682,"St Patrick's Primary School, Eskra",5.86364847652009,"Cooley Primary School, Sixmilecross",Controlled,Not Sustainable,POINT (-7.161058 54.508016)
2032730,"St Columba's Primary School, Clady",Clady,BT82 9QY,Catholic Maintained,West Tyrone,RURAL,93.0,54.793982,-7.530534,2.7042889416150486,"St Theresa's Primary School, Glebe",Catholic Maintained,2.7042889416150486,"St Theresa's Primary School, Glebe",3.792551694411493,Sion Mills Primary School,Controlled Integrated,Not Sustainable,POINT (-7.530534 54.793982)
2032731,"St Teresa's Primary School, Loughmacrory",Loughmacrory,BT79 9LG,Catholic Maintained,West Tyrone,RURAL,182.0,54.627131,-7.10262,5.2533788543260505,"St Brigid's Primary School, Mountfield",Catholic Maintained,5.2533788543260505,"St Brigid's Primary School, Mountfield",8.007232098462062,"Cooley Primary School, Sixmilecross",Controlled,Sustainable,POINT (-7.10262 54.627131)
2032737,"St Colmcille's Primary School, Carrickmore",Sixmilecross,BT79 9BE,Catholic Maintained,West Tyrone,RURAL,415.0,54.598316,-7.035423,5.384169964221551,"St Teresa's Primary School, Loughmacrory",Catholic Maintained,5.384169964221551,"St Teresa's Primary School, Loughmacrory",7.391895206284577,"Cooley Primary School, Sixmilecross",Controlled,Sustainable,POINT (-7.035423 54.598316)
2033706,"Faughanvale Primary School, Greysteel",Greysteel,BT47 3EE,Catholic Maintained,East Londonderry,RURAL,165.0,55.025393,-7.10922,4.457278008606267,"Broadbridge Primary School, Eglinton",Catholic Maintained,4.457278008606267,"Broadbridge Primary School, Eglinton",4.597675010348487,Eglinton Primary School,Controlled,Sustainable,POINT (-7.10922 55.025393)
2033708,"St Aidan's Primary School, Limavady",Limavady,BT49 0LL,Catholic Maintained,East Londonderry,RURAL,60.0,55.151115,-6.90718,8.007884740171026,"Hezlett Primary School, Coleraine",Controlled,11.937041876141953,"Termoncanice Primary School, Limavady",8.007884740171026,"Hezlett Primary School, Coleraine",Controlled,Not Sustainable,POINT (-6.90718 55.151115)
2036008,"St Patrick's Primary School, Newtownstewart",Newtownstewart,BT78 4AQ,Catholic Maintained,West Tyrone,RURAL,100.0,54.715358,-7.379801,0.8986696347881976,Newtownstewart Model Primary School,Controlled,6.982562471117774,"St Eugene's Primary School, Victoria Bridge",0.8986696347881976,Newtownstewart Model Primary School,Controlled,Not Sustainable,POINT (-7.379801 54.715358)
2036032,"St John's Primary School, Bligh's Lane",Londonderry,BT48 9PJ,Catholic Maintained,Foyle,URBAN,415.0,54.995505,-7.338315,0.4525623850622159,"Holy Child Primary School, Derry",Catholic Maintained,0.4525623850622159,"Holy Child Primary School, Derry",0.6863027141368863,"Gaelscoil Eadain Mhoir, Derry",Other Maintained,Sustainable,POINT (-7.338315 54.995505)
2036045,"St Canice Primary School, Dungiven",Dungiven,BT47 4SE,Catholic Maintained,East Londonderry,RURAL,281.0,54.922312,-6.91358,3.430059056717778,"St John's Primary School, Dernaflaw",Catholic Maintained,3.430059056717778,"St John's Primary School, Dernaflaw",4.315546357155678,"Gaelscoil Neachtain, Dungiven",Controlled,Sustainable,POINT (-6.91358 54.922312)
2036069,"St Anne's Primary School, Londonderry",Londonderry,BT48 0EY,Catholic Maintained,Foyle,URBAN,340.0,55.005322,-7.333246,0.4569646792619785,Rosemount Primary School,Catholic Maintained,0.4569646792619785,Rosemount Primary School,0.5510696438262447,Londonderry Model Primary School,Controlled,Sustainable,POINT (-7.333246 55.005322)
2036070,"St Joseph's Primary School, Ederney",Ederney,BT93 0HA,Catholic Maintained,Fermanagh And South Tyrone,RURAL,143.0,54.53127,-7.658811,4.447787687125906,Kesh Primary School,Controlled,6.413942055767092,"St Paul's Primary School, Irvinestown",4.447787687125906,Kesh Primary School,Controlled,Sustainable,POINT (-7.658811 54.53127)
2036082,"St Colmcille's Primary School, Claudy",Claudy,BT47 4HR,Catholic Maintained,East Londonderry,RURAL,252.0,54.912439,-7.156686,0.6044157565689311,Cumber Claudy Primary School,Controlled,7.135264496927949,"St Mary's Primary School, Altinure",0.6044157565689311,Cumber Claudy Primary School,Controlled,Sustainable,POINT (-7.156686 54.912439)
2036084,"Steelstown Primary School, Londonderry",Londonderry,BT48 8EX,Catholic Maintained,Foyle,URBAN,474.0,55.027308,-7.308315,0.0,"Bunscoil Cholmcille, Derry",Catholic Maintained,0.0,"Bunscoil Cholmcille, Derry",0.8412079985504183,Greenhaw Primary School,Controlled,Sustainable,POINT (-7.308315 55.027308)
2036085,"St Peter's & St Paul's Primary School, Dungiven",Dungiven,BT47 4PJ,Catholic Maintained,East Londonderry,RURAL,53.0,54.92985,-7.030482,4.096190472384571,"St John's Primary School, Dernaflaw",Catholic Maintained,4.096190472384571,"St John's Primary School, Dernaflaw",7.316876413537852,"Drumrane Primary School, Dungiven",Controlled,Not Sustainable,POINT (-7.030482 54.92985)
2036090,"St Naile's Primary School, Kinawley",Kinawley,BT92 4FJ,Catholic Maintained,Fermanagh And South Tyrone,RURAL,105.0,54.226683,-7.645845,4.304712518308971,"St Mary's Primary School, Killesher",Catholic Maintained,4.304712518308971,"St Mary's Primary School, Killesher",5.970025035921842,Florencecourt Primary School,Controlled,Sustainable,POINT (-7.645845 54.226683)
2036094,"St Patrick's Primary School, Castlederg",Castlederg,BT81 7EE,Catholic Maintained,West Tyrone,RURAL,308.0,54.716013,-7.596249,0.714783844122089,"Edwards Primary School, Castlederg",Controlled,7.423950478171259,"St Caireall's Primary School, Castlederg",0.714783844122089,"Edwards Primary School, Castlederg",Controlled,Sustainable,POINT (-7.596249 54.716013)
2036095,"St Mary's Primary School, Cloughcor",Strabane,BT82 0BE,Catholic Maintained,West Tyrone,RURAL,140.0,54.88006,-7.415771,2.7441513994797315,"Artigarvan Primary School, Strabane",Controlled,6.85333376629598,St Catherine’s Primary School,2.7441513994797315,"Artigarvan Primary School, Strabane",Controlled,Sustainable,POINT (-7.415771 54.88006)
2036097,"St Peter's Primary School, Plumbridge",Plumbridge,BT79 8AF,Catholic Maintained,West Tyrone,RURAL,79.0,54.768753,-7.253756,5.618694661763123,"Gortin Primary School, Omagh",Controlled,6.077066672143594,"St Patrick's Primary School, Gortin",5.618694661763123,"Gortin Primary School, Omagh",Controlled,Not Sustainable,POINT (-7.253756 54.768753)
2036105,"St Martin's Primary School, Garrison",Garrison,BT93 4AE,Catholic Maintained,Fermanagh And South Tyrone,RURAL,107.0,54.419779,-8.088937,6.21506198768043,"St John the Baptist Primary School, Roscor",Catholic Maintained,6.21506198768043,"St John the Baptist Primary School, Roscor",6.53882922480922,Belleek No 2 Primary School,Controlled,Sustainable,POINT (-8.088937 54.419779)
2036107,"St Joseph's Primary School, Donagh",Lisnaskea,BT92 5BE,Catholic Maintained,Fermanagh And South Tyrone,RURAL,69.0,54.216796,-7.390917,3.990183986463393,Newtownbutler Primary School,Controlled,4.862665257724592,"St Mary's Primary School, Newtownbutler",3.990183986463393,Newtownbutler Primary School,Controlled,Not Sustainable,POINT (-7.390917 54.216796)
2036116,"St Conor's Primary School, Omagh",Omagh,BT78 5JQ,Catholic Maintained,West Tyrone,URBAN,443.0,54.598425,-7.324659,1.0160518811368475,"Holy Family Primary School, Omagh",Catholic Maintained,1.0160518811368475,"Holy Family Primary School, Omagh",1.9698459528138152,"Gibson Primary School, Omagh",Controlled,Sustainable,POINT (-7.324659 54.598425)
2036142,"St Brigid's Primary School, Carnhill",Londonderry,BT48 8BZ,Catholic Maintained,Foyle,URBAN,396.0,55.024672,-7.317226,0.3100383396462853,Greenhaw Primary School,Controlled,0.40560882988930974,"St Patrick's Primary School, Pennyburn",0.3100383396462853,Greenhaw Primary School,Controlled,Sustainable,POINT (-7.317226 55.024672)
2036143,"St Oliver Plunkett Primary School, Strathfoyle",Londonderry,BT47 6XA,Catholic Maintained,Foyle,RURAL,166.0,55.031244,-7.268792,1.819724562247646,Culmore Primary School,Controlled,1.9914724052995247,"St Paul's Primary School, Slievemore",1.819724562247646,Culmore Primary School,Controlled,Sustainable,POINT (-7.268792 55.031244)
2036149,"St Finlough's Primary School, Sistrakeel",Ballykelly,BT49 9JL,Catholic Maintained,East Londonderry,RURAL,59.0,55.012921,-7.039123,2.8866256671523995,Ballykelly Primary School,Controlled,4.67882739642539,"Faughanvale Primary School, Greysteel",2.8866256671523995,Ballykelly Primary School,Controlled,Not Sustainable,POINT (-7.039123 55.012921)
2036153,"St Scire's Primary School, Trillick",Trillick,BT78 3RB,Catholic Maintained,West Tyrone,RURAL,135.0,54.44771,-7.489048,3.2600733886757896,"Queen Elizabeth II Primary School, Kilskeery",Controlled,5.668108996650282,"Tummery Primary School, Dromore",3.2600733886757896,"Queen Elizabeth II Primary School, Kilskeery",Controlled,Sustainable,POINT (-7.489048 54.44771)
2036181,"St Mary's Primary School, Teemore",Derrylin,BT92 9QF,Catholic Maintained,Fermanagh And South Tyrone,RURAL,143.0,54.154498,-7.525775,6.031466404073336,"St Ninnidh's Primary School, Derrylin",Catholic Maintained,6.031466404073336,"St Ninnidh's Primary School, Derrylin",11.073912052121946,Newtownbutler Primary School,Controlled,Sustainable,POINT (-7.525775 54.154498)
2036186,"St Dympna's Primary School, Dromore",Dromore,BT78 3GA,Catholic Maintained,West Tyrone,RURAL,214.0,54.512571453329244,-7.469365801273217,0.9802496134913143,"Dromore Primary School, Tyrone",Controlled,3.990930666358986,"Tummery Primary School, Dromore",0.9802496134913143,"Dromore Primary School, Tyrone",Controlled,Sustainable,POINT (-7.469365801273217 54.512571453329244)
2036187,"St John's Primary School, Dernaflaw",Dungiven,BT47 4PN,Catholic Maintained,East Londonderry,RURAL,167.0,54.924055,-6.967172,3.430059056717778,"St Canice Primary School, Dungiven",Catholic Maintained,3.430059056717778,"St Canice Primary School, Dungiven",5.063677366765724,"Gaelscoil Neachtain, Dungiven",Controlled,Sustainable,POINT (-6.967172 54.924055)
2036213,"St Columban's Primary School, Belcoo",Belcoo,BT93 5DS,Catholic Maintained,Fermanagh And South Tyrone,RURAL,94.0,54.3074,-7.895129,8.627007187609147,"Killyhommon Primary School, Enniskillen",Catholic Maintained,8.627007187609147,"Killyhommon Primary School, Enniskillen",13.094254234161774,Florencecourt Primary School,Controlled,Not Sustainable,POINT (-7.895129 54.3074)
2036227,"St Paul's Primary School, Slievemore",Londonderry,BT48 8QZ,Catholic Maintained,Foyle,URBAN,218.0,55.04889,-7.263448,0.5191426250748539,"Hollybush Primary School, Culmore",Catholic Maintained,0.5191426250748539,"Hollybush Primary School, Culmore",0.648982764791625,Culmore Primary School,Controlled,Sustainable,POINT (-7.263448 55.04889)
2036247,"St Columba's Primary School, Newbuildings",New Buildings,BT47 2QS,Catholic Maintained,Foyle,RURAL,41.0,54.957264,-7.358034,0.24231527294724567,Newbuildings Primary School,Controlled,4.097189700554657,Nazareth House Primary School,0.24231527294724567,Newbuildings Primary School,Controlled,Not Sustainable,POINT (-7.358034 54.957264)
2036258,"St Davog's Primary School, Belleek",Belleek,BT93 3FJ,Catholic Maintained,Fermanagh And South Tyrone,RURAL,105.0,54.481322,-8.090659,0.3261581872832987,Belleek No 2 Primary School,Controlled,3.9312308501571014,"St John the Baptist Primary School, Roscor",0.3261581872832987,Belleek No 2 Primary School,Controlled,Sustainable,POINT (-8.090659 54.481322)
2036259,"Sacred Heart Primary School, Trench Road",Londonderry,BT47 2DT,Catholic Maintained,Foyle,URBAN,424.0,54.985033,-7.307949,0.5593398510173014,"Chapel Road Primary School, Londonderry",Catholic Maintained,0.5593398510173014,"Chapel Road Primary School, Londonderry",1.1815564720925609,"Fountain Primary School, Londonderry",Controlled,Sustainable,POINT (-7.307949 54.985033)
2036288,"Good Shepherd Primary School, Derry",Londonderry,BT47 6BW,Catholic Maintained,Foyle,URBAN,437.0,54.993609,-7.309067,0.40321784552756784,"Chapel Road Primary School, Londonderry",Catholic Maintained,0.40321784552756784,"Chapel Road Primary School, Londonderry",0.7124212423186947,Oakgrove Integrated Primary School,GMI,Sustainable,POINT (-7.309067 54.993609)
2036291,"St Oliver Plunkett Primary School, Beragh",Sixmilecross,BT79 0TH,Catholic Maintained,West Tyrone,RURAL,140.0,54.544478,-7.171157,3.2987037558152696,"Cooley Primary School, Sixmilecross",Controlled,4.106435746281135,"Roscavey Primary School, Beragh",3.2987037558152696,"Cooley Primary School, Sixmilecross",Controlled,Sustainable,POINT (-7.171157 54.544478)
2036356,"St Mary's Primary School, Tempo",Tempo,BT94 3HU,Catholic Maintained,Fermanagh And South Tyrone,RURAL,146.0,54.385507,-7.466087,0.9799736148671137,Tempo Primary School,Controlled,7.074420937842319,"St Scire's Primary School, Trillick",0.9799736148671137,Tempo Primary School,Controlled,Sustainable,POINT (-7.466087 54.385507)
2036415,"Our Lady of Lourdes Primary School, Greencastle",Greencastle,BT79 7QP,Catholic Maintained,West Tyrone,RURAL,115.0,54.692109,-7.087182,7.15302195966837,"St Brigid's Primary School, Mountfield",Catholic Maintained,7.15302195966837,"St Brigid's Primary School, Mountfield",10.039911640873372,"Gortin Primary School, Omagh",Controlled,Sustainable,POINT (-7.087182 54.692109)
2036449,"Christ the King Primary School, Omagh",Omagh,BT79 7HX,Catholic Maintained,West Tyrone,URBAN,196.0,54.613757,-7.300491,1.1111308020829351,"Gibson Primary School, Omagh",Controlled,1.4389732498245573,"Holy Family Primary School, Omagh",1.1111308020829351,"Gibson Primary School, Omagh",Controlled,Sustainable,POINT (-7.300491 54.613757)
2036458,"St Mary's Primary School, Gortnaghey",Dungiven,BT47 4PZ,Catholic Maintained,East Londonderry,RURAL,76.0,54.956429,-6.97026,2.466509664664255,"Drumrane Primary School, Dungiven",Controlled,3.6052291459509243,"St John's Primary School, Dernaflaw",2.466509664664255,"Drumrane Primary School, Dungiven",Controlled,Not Sustainable,POINT (-6.97026 54.956429)
2036459,"St Theresa's Primary School, Glebe",Sion Mills,BT82 9NZ,Catholic Maintained,West Tyrone,RURAL,81.0,54.786624,-7.49033,1.0889034717929176,Sion Mills Primary School,Controlled Integrated,2.7042889416150486,"St Columba's Primary School, Clady",1.0889034717929176,Sion Mills Primary School,Controlled Integrated,Not Sustainable,POINT (-7.49033 54.786624)
2036461,"St Therese Primary School, Lenamore",Londonderry,BT48 8NX,Catholic Maintained,Foyle,URBAN,354.0,55.032088,-7.324654,0.9508542138595623,"St Brigid's Primary School, Carnhill",Catholic Maintained,0.9508542138595623,"St Brigid's Primary School, Carnhill",1.2217396220717767,Greenhaw Primary School,Controlled,Sustainable,POINT (-7.324654 55.032088)
2036465,"Chapel Road Primary School, Londonderry",Londonderry,BT47 2BD,Catholic Maintained,Foyle,URBAN,193.0,54.990062,-7.307753,0.40321784552756784,"Good Shepherd Primary School, Derry",Catholic Maintained,0.40321784552756784,"Good Shepherd Primary School, Derry",0.8629250546879839,"Fountain Primary School, Londonderry",Controlled,Sustainable,POINT (-7.307753 54.990062)
2036472,"Holy Family Primary School, Derry",Londonderry,BT48 0AZ,Catholic Maintained,Foyle,URBAN,520.0,55.018162,-7.345367,0.6162319819984372,"Gaelscoil Na Daroige, Derry",Other Maintained,0.7387179625016941,"St Eithne's Primary School, Londonderry",0.6162319819984372,"Gaelscoil Na Daroige, Derry",Other Maintained,Sustainable,POINT (-7.345367 55.018162)
2036473,"St Eithne's Primary School, Londonderry",Londonderry,BT48 0LT,Catholic Maintained,Foyle,URBAN,311.0,55.013553,-7.353712,0.7387179625016941,"Holy Family Primary School, Derry",Catholic Maintained,0.7387179625016941,"Holy Family Primary School, Derry",1.2110220276440655,"Gaelscoil Na Daroige, Derry",Other Maintained,Sustainable,POINT (-7.353712 55.013553)
2036475,Longtower Primary School,Londonderry,BT48 6QQ,Catholic Maintained,Foyle,URBAN,290.0,54.993057,-7.327653,0.3373970462623598,Nazareth House Primary School,Catholic Maintained,0.3373970462623598,Nazareth House Primary School,0.4684479933802554,"Fountain Primary School, Londonderry",Controlled,Sustainable,POINT (-7.327653 54.993057)
2036533,"Hollybush Primary School, Culmore",Londonderry,BT48 8JN,Catholic Maintained,Foyle,RURAL,428.0,55.051981,-7.269556,0.5191426250748539,"St Paul's Primary School, Slievemore",Catholic Maintained,0.5191426250748539,"St Paul's Primary School, Slievemore",0.5620483618499165,Culmore Primary School,Controlled,Sustainable,POINT (-7.269556 55.051981)
2036555,"St Eugene's Primary School, Derry",Londonderry,BT48 7DS,Catholic Maintained,Foyle,URBAN,199.0,54.999738,-7.327291,0.23605122424901256,Londonderry Model Primary School,Controlled,0.45345836507373044,Rosemount Primary School,0.23605122424901256,Londonderry Model Primary School,Controlled,Sustainable,POINT (-7.327291 54.999738)
2036557,"All Saint's Primary School, Tattysallagh",Omagh,BT78 5BR,Catholic Maintained,West Tyrone,RURAL,102.0,54.560881,-7.411751,5.827413957835783,"Gillygooley Primary School, Omagh",Controlled,6.532346095726288,"St Dympna's Primary School, Dromore",5.827413957835783,"Gillygooley Primary School, Omagh",Controlled,Not Sustainable,POINT (-7.411751 54.560881)
2036574,"Bunscoil Cholmcille, Derry",Londonderry,BT48 8EX,Catholic Maintained,Foyle,URBAN,151.0,55.027308,-7.308315,0.0,"Steelstown Primary School, Londonderry",Catholic Maintained,0.0,"Steelstown Primary School, Londonderry",0.8412079985504183,Greenhaw Primary School,Controlled,Sustainable,POINT (-7.308315 55.027308)
2036581,"St Patrick's Primary School, Pennyburn",Londonderry,BT48 7RD,Catholic Maintained,Foyle,URBAN,719.0,55.021037,-7.317757,0.09589538931805304,Greenhaw Primary School,Controlled,0.40560882988930974,"St Brigid's Primary School, Carnhill",0.09589538931805304,Greenhaw Primary School,Controlled,Sustainable,POINT (-7.317757 55.021037)
2036632,"Holy Trinity Primary School, Mill Street",Enniskillen,BT74 6AZ,Catholic Maintained,Fermanagh And South Tyrone,URBAN,617.0,54.350536,-7.641488,1.6027250480822264,Enniskillen Integrated Primary School,GMI,5.173821538550586,"St Patrick's Primary School, Mullanaskea",1.6027250480822264,Enniskillen Integrated Primary School,GMI,Sustainable,POINT (-7.641488 54.350536)
2036659,"St Macartan's Primary School, Roslea",Rosslea,BT92 7NQ,Catholic Maintained,Fermanagh And South Tyrone,RURAL,81.0,54.227755,-7.257756,1.0219037029871747,"Aghadrumsee Primary School, Roslea",Controlled,5.399838862956068,"St Tierney's Primary School, Roslea",1.0219037029871747,"Aghadrumsee Primary School, Roslea",Controlled,Not Sustainable,POINT (-7.257756 54.227755)
2036674,"Holy Family Primary School, Omagh",Omagh,BT78 5HZ,Catholic Maintained,West Tyrone,URBAN,325.0,54.602108,-7.310223,0.9614186178786996,"Gibson Primary School, Omagh",Controlled,1.0160518811368475,"St Conor's Primary School, Omagh",0.9614186178786996,"Gibson Primary School, Omagh",Controlled,Sustainable,POINT (-7.310223 54.602108)
2036696,"St Mary's Primary School, Strabane",Strabane,BT82 9EF,Catholic Maintained,West Tyrone,URBAN,705.0,54.815208,-7.473653,0.8542679788038455,"Gaelscoil Ui Dhochartaigh, Strabane",Other Maintained,1.4004855940608263,St Catherine’s Primary School,0.8542679788038455,"Gaelscoil Ui Dhochartaigh, Strabane",Other Maintained,Sustainable,POINT (-7.473653 54.815208)
2036703,St Catherine’s Primary School,Strabane,BT82 8HT,Catholic Maintained,West Tyrone,URBAN,457.0,54.823083,-7.456593,0.6679089823914129,"Gaelscoil Ui Dhochartaigh, Strabane",Other Maintained,1.4004855940608263,"St Mary's Primary School, Strabane",0.6679089823914129,"Gaelscoil Ui Dhochartaigh, Strabane",Other Maintained,Sustainable,POINT (-7.456593 54.823083)
2036711,Our Lady of Fatima Primary School,Londonderry,BT47 3AU,Catholic Maintained,East Londonderry,RURAL,98.0,54.986995,-7.181367,3.9253223722289454,Eglinton Primary School,Controlled,4.5295248716684835,"Broadbridge Primary School, Eglinton",3.9253223722289454,Eglinton Primary School,Controlled,Not Sustainable,POINT (-7.181367 54.986995)
2036712,"St Michael's Primary School, Dunamanagh",Dunnamanagh,BT82 0QN,Catholic Maintained,West Tyrone,RURAL,76.0,54.871389,-7.309213,0.8556393871066205,"Donemana Primary School, Strabane",Controlled,6.885030372359637,"St Mary's Primary School, Cloughcor",0.8556393871066205,"Donemana Primary School, Strabane",Controlled,Not Sustainable,POINT (-7.309213 54.871389)
2046638,"Gaelscoil Ui Dhochartaigh, Strabane",Strabane,BT82 9AQ,Other Maintained,West Tyrone,URBAN,152.0,54.817641,-7.461006,0.6679089823914129,St Catherine’s Primary School,Catholic Maintained,20.816248524787365,"Gaelscoil Eadain Mhoir, Derry",0.6679089823914129,St Catherine’s Primary School,Catholic Maintained,Sustainable,POINT (-7.461006 54.817641)
2046646,"Gaelscoil Eadain Mhoir, Derry",Londonderry,BT48 6NP,Other Maintained,Foyle,URBAN,184.0,54.989937,-7.333673,0.3008282178199725,Nazareth House Primary School,Catholic Maintained,3.839345060959445,"Gaelscoil Na Daroige, Derry",0.3008282178199725,Nazareth House Primary School,Catholic Maintained,Sustainable,POINT (-7.333673 54.989937)
2046669,"Bunscoil an Traonaigh, Lisnaskea",Lisnaskea,BT92 0PE,Other Maintained,Fermanagh And South Tyrone,RURAL,65.0,54.263484,-7.462464,0.7027325847157064,"St Ronan's Primary School, Lisnaskea",Catholic Maintained,39.691871663612694,"Gaelscoil Na gCrann, Omagh",0.7027325847157064,"St Ronan's Primary School, Lisnaskea",Catholic Maintained,Not Sustainable,POINT (-7.462464 54.263484)
2046677,"Gaelscoil Na gCrann, Omagh",Omagh,BT79 0GZ,Other Maintained,West Tyrone,URBAN,184.0,54.5993316600317,-7.2545584724318095,1.292933690773846,"St Ronan's Primary School, Recarson",Catholic Maintained,27.661600284667855,"Gaelscoil Ui Dhochartaigh, Strabane",1.292933690773846,"St Ronan's Primary School, Recarson",Catholic Maintained,Sustainable,POINT (-7.2545584724318095 54.5993316600317)
2046687,"Gaelscoil Na Daroige, Derry",Londonderry,BT48 0ND,Other Maintained,Foyle,URBAN,114.0,55.023657,-7.346622,0.6162319819984372,"Holy Family Primary School, Derry",Catholic Maintained,3.839345060959445,"Gaelscoil Eadain Mhoir, Derry",0.6162319819984372,"Holy Family Primary School, Derry",Catholic Maintained,Not Sustainable,POINT (-7.346622 55.023657)
2046689,"Gaelscoil Leim An Mhadaidh, Limavady",Limavady,BT49 0BX,Other Maintained,East Londonderry,URBAN,123.0,55.052445,-6.942573,0.18249931896456834,"Drumachose Primary School, Limavady",Controlled,25.881468757303452,"Gaelscoil Eadain Mhoir, Derry",0.18249931896456834,"Drumachose Primary School, Limavady",Controlled,Not Sustainable,POINT (-6.942573 55.052445)
2056442,Sion Mills Primary School,Sion Mills,BT82 9HP,Controlled Integrated,West Tyrone,RURAL,235.0,54.784039,-7.47395,1.0889034717929176,"St Theresa's Primary School, Glebe",Catholic Maintained,53.78216910079816,"Carhill Integrated Primary School, Garvagh",1.0889034717929176,"St Theresa's Primary School, Glebe",Catholic Maintained,Sustainable,POINT (-7.47395 54.784039)
2066549,Enniskillen Integrated Primary School,Enniskillen,BT74 4FH,GMI,Fermanagh And South Tyrone,URBAN,465.0,54.364444,-7.647982,1.6027250480822264,"Holy Trinity Primary School, Mill Street",Catholic Maintained,34.264032227846585,Omagh Integrated Primary School,1.6027250480822264,"Holy Trinity Primary School, Mill Street",Catholic Maintained,Sustainable,POINT (-7.647982 54.364444)
2066552,Omagh Integrated Primary School,Omagh,BT79 0EX,GMI,West Tyrone,URBAN,313.0,54.58178,-7.272057,2.2538845933960774,"Gaelscoil Na gCrann, Omagh",Other Maintained,33.60442985574317,"Windmill Integrated Primary School, Dungannon",2.2538845933960774,"Gaelscoil Na gCrann, Omagh",Other Maintained,Sustainable,POINT (-7.272057 54.58178)
2066558,Oakgrove Integrated Primary School,Londonderry,BT47 6JY,GMI,Foyle,URBAN,430.0,54.999642,-7.305307,0.7124212423186947,"Good Shepherd Primary School, Derry",Catholic Maintained,23.044918603052402,"Roe Valley Integrated Primary School, Limavady",0.7124212423186947,"Good Shepherd Primary School, Derry",Catholic Maintained,Sustainable,POINT (-7.305307 54.999642)
2066665,"Roe Valley Integrated Primary School, Limavady",Limavady,BT49 9EX,GMI,East Londonderry,URBAN,179.0,55.037408,-6.949867,0.8832395843374616,Limavady Central Primary School,Controlled,23.044918603052402,Oakgrove Integrated Primary School,0.8832395843374616,Limavady Central Primary School,Controlled,Sustainable,POINT (-6.949867 55.037408)
3010404,"Tildarg Primary School, Ballyclare",Kells,BT39 9JU,Controlled,South Antrim,RURAL,38.0,54.794311,-6.056293,3.8116214267441295,"Kilbride Central Primary School, Ballyclare",Controlled,3.8116214267441295,"Kilbride Central Primary School, Ballyclare",11.787793245734646,Six Mile Integrated Primary School,Controlled Integrated,Not Sustainable,POINT (-6.056293 54.794311)
3010486,Larne & Inver Primary School,Larne,BT40 3AY,Controlled,East Antrim,URBAN,200.0,54.848481,-5.823055,0.6274006639997067,"St MacNissi's Primary School, Larne",Catholic Maintained,0.8966726454185715,"Moyle Primary School, Larne",0.6274006639997067,"St MacNissi's Primary School, Larne",Catholic Maintained,Sustainable,POINT (-5.823055 54.848481)
3010553,"Carrickfergus Model Primary School, Carrickfergus",Carrickfergus,BT38 8BU,Controlled,East Antrim,URBAN,364.0,54.712131,-5.817412,0.34287029741830005,"St Nicholas' Primary School, Carrickfergus",Catholic Maintained,1.0021981329867153,"Sunnylands Primary School, Carrickfergus",0.34287029741830005,"St Nicholas' Primary School, Carrickfergus",Catholic Maintained,Sustainable,POINT (-5.817412 54.712131)
3010558,"Duneane Primary School, Toomebridge",Toomebridge,BT41 3RD,Controlled,South Antrim,RURAL,23.0,54.752938,-6.412306,2.1278965198471442,Moneynick Primary School,Catholic Maintained,4.643803827105645,"Groggan Primary School, Randalstown",2.1278965198471442,Moneynick Primary School,Catholic Maintained,Not Sustainable,POINT (-6.412306 54.752938)
3010570,"Straid Primary School, Ballyclare",Ballyclare,BT39 9NQ,Controlled,South Antrim,RURAL,18.0,54.751376,-5.926334,3.5380588245957916,Ballynure Primary School,Controlled,3.5380588245957916,Ballynure Primary School,6.62038106464879,"St MacNissi's Primary School, Newtownabbey",Catholic Maintained,Not Sustainable,POINT (-5.926334 54.751376)
3010572,"Carrowreagh Primary School, Ballymoney",Ballymoney,BT53 7JL,Controlled,North Antrim,RURAL,89.0,55.017755,-6.505919,3.3336575974643843,"Lislagan Primary School, Ballymoney",Controlled,3.3336575974643843,"Lislagan Primary School, Ballymoney",5.562197443177165,"St Brigid's Primary School, Ballymoney",Catholic Maintained,Not Sustainable,POINT (-6.505919 55.017755)
3010594,"Garryduff Primary School, Ballymoney",Ballymoney,BT53 7DR,Controlled,North Antrim,RURAL,72.0,55.03175,-6.447717,3.7283925237528477,"St Joseph's Primary School, Dunloy",Catholic Maintained,4.022941186038292,"Carrowreagh Primary School, Ballymoney",3.7283925237528477,"St Joseph's Primary School, Dunloy",Catholic Maintained,Not Sustainable,POINT (-6.447717 55.03175)
3010631,Ballyclare Primary School,Ballyclare,BT39 9BG,Controlled,South Antrim,URBAN,533.0,54.751327,-6.00478,0.4306325166274827,"Fairview Primary School, Ballyclare",Controlled,0.4306325166274827,"Fairview Primary School, Ballyclare",7.717759467286171,"St MacNissi's Primary School, Newtownabbey",Catholic Maintained,Sustainable,POINT (-6.00478 54.751327)
3010642,"Parkgate Primary School, Ballyclare",Parkgate,BT39 0DH,Controlled,South Antrim,RURAL,51.0,54.725222,-6.092681,2.810768636824456,"Templepatrick Primary School, Ballyclare",Controlled,2.810768636824456,"Templepatrick Primary School, Ballyclare",5.7919544075141145,"St Joseph's Primary School, Antrim",Catholic Maintained,Not Sustainable,POINT (-6.092681 54.725222)
3010646,"Olderfleet Primary School, Larne",Larne,BT40 1BX,Controlled,East Antrim,URBAN,114.0,54.851256,-5.804001,0.729426120979564,"St MacNissi's Primary School, Larne",Catholic Maintained,1.1210703741866372,"Moyle Primary School, Larne",0.729426120979564,"St MacNissi's Primary School, Larne",Catholic Maintained,Not Sustainable,POINT (-5.804001 54.851256)
3010696,"Woodburn Primary School, Carrickfergus",Carrickfergus,BT38 9AB,Controlled,East Antrim,URBAN,197.0,54.728669,-5.843831,1.5251141936661843,"Woodlawn Primary School, Carrickfergus",Controlled,1.5251141936661843,"Woodlawn Primary School, Carrickfergus",2.431582476427034,"St Nicholas' Primary School, Carrickfergus",Catholic Maintained,Sustainable,POINT (-5.843831 54.728669)
3010714,"Buick Memorial Primary School, Ballymena",Cullybackey,BT42 1BW,Controlled,North Antrim,RURAL,277.0,54.888188,-6.353409,1.6784143315150961,"The Diamond Primary School, Cullybackey",Controlled,1.6784143315150961,"The Diamond Primary School, Cullybackey",4.780135041344033,"St Paul's Primary School, Ahoghill",Catholic Maintained,Sustainable,POINT (-6.353409 54.888188)
3010726,Dunseverick Primary School,Bushmills,BT57 8SR,Controlled,North Antrim,RURAL,91.0,55.22619,-6.445024,5.758772587409131,Bushmills Primary School,Controlled,5.758772587409131,Bushmills Primary School,12.317110840905999,"Gaelscoil An Chaistil, Ballycastle",Other Maintained,Not Sustainable,POINT (-6.445024 55.22619)
3010741,"Creavery Primary School, Antrim",Antrim,BT41 2LH,Controlled,South Antrim,RURAL,52.0,54.75642,-6.228509,2.6951416786350526,Round Tower Integrated Primary School,Controlled Integrated,4.2778185109781655,"Parkhall Primary School, Antrim",2.6951416786350526,Round Tower Integrated Primary School,Controlled Integrated,Not Sustainable,POINT (-6.228509 54.75642)
3010745,"Loanends Primary School, Crumlin",Crumlin,BT29 4YR,Controlled,South Antrim,RURAL,184.0,54.66345,-6.105637,3.3741433486598984,"Straidhavern Primary School, Crumlin",Controlled,3.3741433486598984,"Straidhavern Primary School, Crumlin",6.798050924112768,Mallusk Controlled Integrated Primary School,Controlled Integrated,Sustainable,POINT (-6.105637 54.66345)
3010754,"Doagh Primary School, Ballyclare",Ballyclare,BT39 0QL,Controlled,South Antrim,RURAL,134.0,54.738077,-6.042388,2.5365399069290637,"Kilbride Central Primary School, Ballyclare",Controlled,2.5365399069290637,"Kilbride Central Primary School, Ballyclare",7.039366549400241,Mallusk Controlled Integrated Primary School,Controlled Integrated,Sustainable,POINT (-6.042388 54.738077)
3010779,"The Thompson Primary School, Ballyclare",Ballyclare,BT39 9RX,Controlled,South Antrim,RURAL,161.0,54.716772,-6.001527,3.535003898821026,"Doagh Primary School, Ballyclare",Controlled,3.535003898821026,"Doagh Primary School, Ballyclare",4.210263300921081,Mallusk Controlled Integrated Primary School,Controlled Integrated,Sustainable,POINT (-6.001527 54.716772)
3010780,"Kirkinriola Primary School, Ballymena",Ballymena,BT43 6TB,Controlled,North Antrim,RURAL,93.0,54.896659,-6.262434,2.1540242445519096,"Braidside Integratead Primary School, Ballymena",GMI,2.162100122472075,"Dunclug Primary School, Ballymena",2.1540242445519096,"Braidside Integratead Primary School, Ballymena",GMI,Not Sustainable,POINT (-6.262434 54.896659)
3010781,"Harryville Primary School, Ballymena",Ballymena,BT42 4BY,Controlled,North Antrim,URBAN,228.0,54.859392,-6.273023,0.9122701832673511,"Ballykeel Primary School, Ballymena",Controlled,0.9122701832673511,"Ballykeel Primary School, Ballymena",1.1707759885026063,"St Colmcilles Primary School, Ballymena",Catholic Maintained,Sustainable,POINT (-6.273023 54.859392)
3010785,"Eden Primary School, Carrickfergus",Carrickfergus,BT38 7NL,Controlled,East Antrim,URBAN,207.0,54.728552,-5.774239,1.2910266406495488,"Acorn Integrated Primary School, Carrickfergus",GMI,1.4219402915121622,"Victoria Primary School, Carrickfergus",1.2910266406495488,"Acorn Integrated Primary School, Carrickfergus",GMI,Sustainable,POINT (-5.774239 54.728552)
3010787,"Lislagan Primary School, Ballymoney",Ballymoney,BT53 7JF,Controlled,North Antrim,RURAL,109.0,55.047731,-6.505037,2.083060374594004,"Leaney Primary School, Ballymoney",Controlled,2.083060374594004,"Leaney Primary School, Ballymoney",2.385149420319663,"St Brigid's Primary School, Ballymoney",Catholic Maintained,Sustainable,POINT (-6.505037 55.047731)
3010794,"Gracehill Primary School, Ballymena",Ballymena,BT42 2NL,Controlled,North Antrim,URBAN,426.0,54.85338,-6.327438,2.4609319231771845,"Fourtowns Primary School, Ahoghill",Controlled,2.4609319231771845,"Fourtowns Primary School, Ahoghill",3.1164202593859516,"St Paul's Primary School, Ahoghill",Catholic Maintained,Sustainable,POINT (-6.327438 54.85338)
3010795,"Landhead Primary School, Ballymoney",Ballymoney,BT53 7HL,Controlled,North Antrim,RURAL,54.0,55.072787,-6.489871,1.2052783881012727,"Leaney Primary School, Ballymoney",Controlled,1.2052783881012727,"Leaney Primary School, Ballymoney",2.121292008621795,Ballymoney Model Controlled Integrated Primary School,Controlled Integrated,Not Sustainable,POINT (-6.489871 55.072787)
3010796,"Eden Primary School, Ballymoney",Ballymoney,BT53 7PB,Controlled,North Antrim,RURAL,90.0,55.03145,-6.56373,3.6905967790525875,"Culcrow Primary School, Aghadowey",Controlled,3.6905967790525875,"Culcrow Primary School, Aghadowey",4.773044394317385,"St Brigid's Primary School, Ballymoney",Catholic Maintained,Not Sustainable,POINT (-6.56373 55.03145)
3010802,Ballynure Primary School,Ballyclare,BT39 9UE,Controlled,South Antrim,RURAL,144.0,54.778394,-5.955464,2.044888397324409,"Upper Ballyboley Primary School, Ballyclare",Controlled,2.044888397324409,"Upper Ballyboley Primary School, Ballyclare",9.600310446402405,"St MacNissi's Primary School, Newtownabbey",Catholic Maintained,Sustainable,POINT (-5.955464 54.778394)
3010804,"Straidbilly Primary School, Ballymoney",Ballymoney,BT53 8EE,Controlled,North Antrim,RURAL,87.0,55.17219,-6.453421,5.584624340763844,"William Pinkerton Memorial Primary School, Ballymoney",Controlled,5.584624340763844,"William Pinkerton Memorial Primary School, Ballymoney",9.508275918881766,"St Olcan's Primary School, Ballymoney",Catholic Maintained,Not Sustainable,POINT (-6.453421 55.17219)
3010808,"Glynn Primary School, Larne",Glynn,BT40 3HF,Controlled,East Antrim,RURAL,87.0,54.827894,-5.8119,2.3980339170994514,Larne & Inver Primary School,Controlled,2.3980339170994514,Larne & Inver Primary School,2.684359155617456,"St MacNissi's Primary School, Larne",Catholic Maintained,Not Sustainable,POINT (-5.8119 54.827894)
3010809,"Ballycarry Primary School, Carrickfergus",Ballycarry,BT38 9HE,Controlled,East Antrim,RURAL,38.0,54.776248,-5.752936,3.4280881158985888,"Whitehead Primary School, Carrickfergus",Controlled,3.4280881158985888,"Whitehead Primary School, Carrickfergus",6.1987299887825404,"Acorn Integrated Primary School, Carrickfergus",GMI,Not Sustainable,POINT (-5.752936 54.776248)
3010816,Randalstown Central Primary School,Randalstown,BT41 3AJ,Controlled,South Antrim,URBAN,174.0,54.749065,-6.324768,0.8441975802174551,"Maine Integrated Primary School, Randalstown",GMI,4.875183912013917,"Groggan Primary School, Randalstown",0.8441975802174551,"Maine Integrated Primary School, Randalstown",GMI,Sustainable,POINT (-6.324768 54.749065)
3010817,"Greenisland Primary School, Carrickfergus",Carrickfergus,BT38 8RA,Controlled,East Antrim,URBAN,410.0,54.700702,-5.873986,1.0253637196289673,"Silverstream Primary School, Greenisland",Controlled,1.0253637196289673,"Silverstream Primary School, Greenisland",3.3676569353298147,"St James Primary School, Newtownabbey",Catholic Maintained,Sustainable,POINT (-5.873986 54.700702)
3010818,"Moorfields Primary School, Ballymena",Ballymena,BT42 3EF,Controlled,North Antrim,RURAL,209.0,54.828612,-6.154571,4.600161802265534,"Kells and Connor Primary School, Ballymena",Controlled,4.600161802265534,"Kells and Connor Primary School, Ballymena",8.522453675045053,"Braidside Integratead Primary School, Ballymena",GMI,Sustainable,POINT (-6.154571 54.828612)
3010822,"Groggan Primary School, Randalstown",Randalstown,BT41 3EU,Controlled,South Antrim,RURAL,127.0,54.785514,-6.367005,4.052300697138658,"Maine Integrated Primary School, Randalstown",GMI,4.643803827105645,"Duneane Primary School, Toomebridge",4.052300697138658,"Maine Integrated Primary School, Randalstown",GMI,Sustainable,POINT (-6.367005 54.785514)
3010825,"Carnaghts Primary School, Shankbridge",Kells,BT42 2LX,Controlled,North Antrim,RURAL,94.0,54.814547,-6.270115,3.175340917914568,"Kells and Connor Primary School, Ballymena",Controlled,3.175340917914568,"Kells and Connor Primary School, Ballymena",5.946793786371369,"St Colmcilles Primary School, Ballymena",Catholic Maintained,Not Sustainable,POINT (-6.270115 54.814547)
